id,name_ru,name_en,country_ru,country_en,country_code,lat,lon,population
12,Саранда,Saranda City,Албания,Albania,AL,39.883333333,20.016666666,41000
25,Шкодер,Shkodër,Албания,Albania,AL,42.066666666,19.5,76000
30,Ванадзор,Vanadzor,Армения,Armenia,AM,40.812777777,44.488333333,90525
53,Сари-Пуль,Sar-e Pol,Афганистан,Afghanistan,AF,36.221388888,65.927777777,51075
88,Бамиан,Bamyan,Афганистан,Afghanistan,AF,34.816666666,67.816666666,100000
92,Асадабад,Asadabad,Афганистан,Afghanistan,AF,34.874166666,71.152777777,48400
99,Фиери,Fier,Албания,Albania,AL,40.716666666,19.55,55845
116,Джелалабад,Jalalabad,Афганистан,Afghanistan,AF,34.430277777,70.452777777,263312
134,Баглан,Baghlan,Афганистан,Afghanistan,AF,36.132777777,68.7,83490
140,Балх,Balkh,Афганистан,Afghanistan,AF,36.758055555,66.898888888,77000
171,Абовян,Abovyan,Армения,Armenia,AM,40.273888888,44.625555555,44400
216,Кабул,Kabul,Афганистан,Afghanistan,AF,34.532777777,69.165833333,4273156
238,Влёра,Vlorë,Албания,Albania,AL,40.45,19.483333333,130827
259,Раздан,Hrazdan,Армения,Armenia,AM,40.5,44.766666666,52283
285,Меймене,Maymana,Афганистан,Afghanistan,AF,35.933333333,64.75,96000
364,Гардез,Gardēz,Афганистан,Afghanistan,AF,33.593055555,69.229722222,70000
392,Гюмри,Gyumri,Армения,Armenia,AM,40.783333333,43.833333333,121976
428,Пули-Хумри,Pul-e Khomri,Афганистан,Afghanistan,AF,35.95,68.7,113500
437,Лашкаргах,Lashkar Gah,Афганистан,Afghanistan,AF,31.593819444,64.371611111,201546
448,Чарикар,Charikar,Афганистан,Afghanistan,AF,35.016666666,69.166666666,69110
518,Фарах,Farah,Афганистан,Afghanistan,AF,32.343611111,62.119444444,54000
573,Пагман,Paghman,Афганистан,Afghanistan,AF,34.58333333,68.95,49157
622,Таринкот,Tarinkot,Афганистан,Afghanistan,AF,32.624167,65.876667,70000
638,Аджман,Ajman,Объединённые Арабские Эмираты,United Arab Emirates,AE,25.399444444,55.479722222,490035
644,Эль-Айн,Al Ain,Объединённые Арабские Эмираты,United Arab Emirates,AE,24.2075,55.744722222,766936
659,Абу-Даби,Abu Dhabi,Объединённые Арабские Эмираты,United Arab Emirates,AE,24.451111111,54.396944444,1483000
686,Шибарган,Sheberghan,Афганистан,Afghanistan,AF,36.665,65.752,175599
708,Вагаршапат,Vagharshapat,Армения,Armenia,AM,40.172777777,44.2925,57500
756,Мазари-Шариф,Mazar-i-Sharif,Афганистан,Afghanistan,AF,36.7,67.116666666,469247
779,Герат,Herat,Афганистан,Afghanistan,AF,34.34817,62.19967,556205
803,Кундуз,Kunduz,Афганистан,Afghanistan,AF,36.728888888,68.856944444,356536
810,Хост,Khost,Афганистан,Afghanistan,AF,33.333333333,69.916666666,160214
862,Талукан,Taloqan,Афганистан,Afghanistan,AF,36.716666666,69.516666666,258758
878,Файзабад,Fayzabad,Афганистан,Afghanistan,AF,37.121944444,70.583333333,44421
900,Шарджа,Sharjah,Объединённые Арабские Эмираты,United Arab Emirates,AE,25.3375,55.411944444,1247749
920,Корча,Korçë,Албания,Albania,AL,40.616666666,20.766666666,51152
953,Кандагар,Kandahar,Афганистан,Afghanistan,AF,31.61332,65.71013,614254
977,Капан,Kapan,Армения,Armenia,AM,39.201111111,46.415,43190
979,Зарандж,Zaranj,Афганистан,Afghanistan,AF,30.96,61.86,49851
1008,Рио-Гранде,Río Grande,Аргентина,Argentina,AR,-53.783333,-67.7,52681
1010,Хунин,Junín,Аргентина,Argentina,AR,-34.59391,-60.94644,87509
1014,Касерос,Caseros,Аргентина,Argentina,AR,-34.616666666,-58.533333333,95785
1016,Хенераль-Пико,General Pico,Аргентина,Argentina,AR,-35.658702825,-63.757713271,57669
1020,Сумбе,Sumbe,Ангола,Angola,AO,-11.2052,13.8417,279968
1022,Гуалегуайчу,Gualeguaychú,Аргентина,Argentina,AR,-33.007777777,-58.511111111,109461
1029,Кашито,Caxito,Ангола,Angola,AO,-8.646666666,13.664166666,77276
1040,Луанда,Luanda,Ангола,Angola,AO,-8.83682,13.23432,2487444
1048,Сан-Хусто,San Justo,Аргентина,Argentina,AR,-34.683333333,-58.55,136604
1052,Трелью,Trelew,Аргентина,Argentina,AR,-43.253333333,-65.309444444,97915
1057,Вилья-Карлос-Пас,Carlos Paz,Аргентина,Argentina,AR,-31.4,-64.516666666,62423
1066,Санта-Роса,Santa Rosa,Аргентина,Argentina,AR,-36.620277777,-64.290555555,102860
1089,Плоттьер,Plottier,Аргентина,Argentina,AR,-38.95,-68.233333333,52190
1108,Сан-Мигель-де-Тукуман,San Miguel de Tucumán,Аргентина,Argentina,AR,-26.816666666,-65.216666666,605767
1119,Эсейса,Ezeiza,Аргентина,Argentina,AR,-34.833333333,-58.516666666,160219
1125,Саэнс-Пенья,Presidencia Roque Sáenz Peña,Аргентина,Argentina,AR,-26.783333333,-60.45,101086
1141,Санто-Томе,Santo Tomé,Аргентина,Argentina,AR,-31.666666666,-60.766666666,65684
1142,Катриель,Catriel,Аргентина,Argentina,AR,-37.877777777,-67.791666666,47569
1144,Мендоса,Mendoza,Аргентина,Argentina,AR,-32.89084,-68.82717,114822
1149,Пунта-Альта,Punta Alta,Аргентина,Argentina,AR,-38.88,-62.075,58315
1151,Лубанго,Lubango,Ангола,Angola,AO,-14.916666666,13.5,903564
1155,Рио-Гальегос,Río Gallegos,Аргентина,Argentina,AR,-51.623333333,-69.216111111,115585
1156,Ндалатандо,N'dalatando,Ангола,Angola,AO,-9.3,14.91666667,161584
1159,Сан-Луис,San Luis,Аргентина,Argentina,AR,-33.299444444,-66.339166666,169947
1166,Кутраль-Ко,Cutral Co,Аргентина,Argentina,AR,-38.933333333,-69.233333333,40344
1170,Конкордия,Concordia,Аргентина,Argentina,AR,-31.392222222,-58.016944444,149450
1172,Лобиту,Lobito,Ангола,Angola,AO,-12.35,13.546388888,436467
1187,Пилар,Pilar,Аргентина,Argentina,AR,-34.45867,-58.91398,81120
1201,Сапала,Zapala,Аргентина,Argentina,AR,-38.902777777,-70.065,40472
1211,Эсперанса,Esperanza,Аргентина,Argentina,AR,-31.448888888,-60.931666666,42082
1218,Мбанза-Конго,M'banza-Kongo,Ангола,Angola,AO,-6.266666666,14.25,148000
1224,Чахари,Chajarí,Аргентина,Argentina,AR,-30.766666666,-57.983333333,45848
1236,Ресистенсия,Resistencia,Аргентина,Argentina,AR,-27.451388888,-58.986666666,298611
1244,Ла-Плата,La Plata,Аргентина,Argentina,AR,-34.933333333,-57.95,193144
1282,Олаваррия,Olavarría,Аргентина,Argentina,AR,-36.9,-60.333333333,89721
1308,Рио-Куарто,Río Cuarto,Аргентина,Argentina,AR,-33.1229869,-64.3477571,200000
1336,Хенераль-Рока,General Roca,Аргентина,Argentina,AR,-39.033333333,-67.583333333,108680
1339,Сойо,Soyo,Ангола,Angola,AO,-6.133333333,12.366666666,200920
1350,Тартагаль,Tartagal,Аргентина,Argentina,AR,-22.515,-63.799,60819
1372,Чиполлетти,Cipolletti,Аргентина,Argentina,AR,-38.933333333,-68.016666666,105482
1392,Сан-Рамон-де-ла-Нуэва-Оран,San Ramón de la Nueva Orán,Аргентина,Argentina,AR,-23.136111111,-64.322222222,74059
1394,Рио-Терсеро,Río Tercero,Аргентина,Argentina,AR,-32.1767655,-64.1129881,46421
1398,Тандиль,Tandil,Аргентина,Argentina,AR,-37.3287,-59.1369,150162
1400,Парана,Paraná,Аргентина,Argentina,AR,-31.733055555,-60.529722222,247863
1408,Консепсьон-дель-Уругвай,Concepción del Uruguay,Аргентина,Argentina,AR,-32.483333333,-58.233333333,100728
1409,Сан-Сальвадор-де-Жужуй,San Salvador de Jujuy,Аргентина,Argentina,AR,-24.185555555,-65.299444444,321789
1423,Коскин,Cosquín,Аргентина,Argentina,AR,-31.24525,-64.46574,47785
1437,Санта-Люсия,Santa Lucía Department,Аргентина,Argentina,AR,-31.53333333,-68.46666667,62729
1438,Мерседес,Mercedes,Аргентина,Argentina,AR,-34.65,-59.433333333,63284
1444,Посадас,Posadas,Аргентина,Argentina,AR,-27.366666666,-55.896944444,275988
1446,Мосамедиш,Moçâmedes,Ангола,Angola,AO,-15.195277777,12.150833333,255000
1451,Ла-Риоха,La Rioja,Аргентина,Argentina,AR,-29.413055555,-66.855833333,180995
1462,Ушуая,Ushuaia,Аргентина,Argentina,AR,-54.807222222,-68.304444444,82615
1466,Мар-дель-Плата,Mar del Plata,Аргентина,Argentina,AR,-38,-57.55,593337
1474,Кордова,Córdoba,Аргентина,Argentina,AR,-31.416666666,-64.183333333,1329604
1488,Пуэрто-Мадрин,Puerto Madryn,Аргентина,Argentina,AR,-42.7729674,-65.0366104,115353
1492,Ла-Пас,La Paz,Аргентина,Argentina,AR,-30.740555555,-59.644444444,74762
1494,Росарио,Rosario,Аргентина,Argentina,AR,-32.9575,-60.639444444,1193605
1500,Сантьяго-дель-Эстеро,Santiago del Estero,Аргентина,Argentina,AR,-27.784444444,-64.266944444,430280
1501,Сауримо,Saurimo,Ангола,Angola,AO,-9.6589,20.3934,393000
1515,Годой-Крус,Godoy Cruz,Аргентина,Argentina,AR,-32.916666666,-68.833333333,191299
1527,Онджива,Ondjiva,Ангола,Angola,AO,-17.066666666,15.733333333,121537
1529,Гойя,Goya,Аргентина,Argentina,AR,-29.133333333,-59.25,70245
1531,Итусайнго,Ituzaingó,Аргентина,Argentina,AR,-34.658223,-58.667213,129510
1544,Пергамино,Pergamino,Аргентина,Argentina,AR,-33.883611111,-60.566944444,91399
1549,Кильмес,Quilmes,Аргентина,Argentina,AR,-34.716666666,-58.266666666,262379
1556,Вильягуай,Villaguay,Аргентина,Argentina,AR,-31.85,-59.01666667,49445
1562,Калета-Оливия,Caleta Olivia,Аргентина,Argentina,AR,-46.433333333,-67.533333333,56298
1565,Рафаэла,Rafaela,Аргентина,Argentina,AR,-31.266666666,-61.483333333,92945
1572,Вилья-Мария,Villa María,Аргентина,Argentina,AR,-32.410277777,-63.231388888,88600
1598,Морон,Morón,Аргентина,Argentina,AR,-34.65,-58.616666666,99066
1607,Баия-Бланка,Bahía Blanca,Аргентина,Argentina,AR,-38.716666666,-62.266666666,299000
1610,Берасатеги,Berazategui,Аргентина,Argentina,AR,-34.767888888,-58.213277777,180523
1618,Менонге,Menongue,Ангола,Angola,AO,-14.6556,17.6842,372500
1619,Мерло,Merlo,Аргентина,Argentina,AR,-34.6653,-58.7275,244168
1622,Сан-Франсиско,San Francisco,Аргентина,Argentina,AR,-31.435555555,-62.071388888,62001
1631,Обера,Oberá,Аргентина,Argentina,AR,-27.483333333,-55.133333333,66112
1633,Клоринда,Clorinda,Аргентина,Argentina,AR,-25.291388888,-57.718333333,47240
1662,Катумбела,Catumbela,Ангола,Angola,AO,-12.41666667,13.53333333,175805
1664,Барракас (Буэнос-Айрес),Barracas,Аргентина,Argentina,AR,-34.65,-58.383333333,89452
1680,Комодоро-Ривадавия,Comodoro Rivadavia,Аргентина,Argentina,AR,-45.866666666,-67.5,201228
1718,Ломас-де-Самора,Lomas de Zamora,Аргентина,Argentina,AR,-34.766666666,-58.4,112580
1724,Уамбо,Huambo,Ангола,Angola,AO,-12.766666666,15.733333333,844000
1732,Квито,Kuito,Ангола,Angola,AO,-12.383333333,16.933333333,512706
1756,Вилья-Гобернадор-Гальвес,Villa Gobernador Gálvez,Аргентина,Argentina,AR,-33.0250796,-60.633744,80769
1764,Вьедма,Viedma,Аргентина,Argentina,AR,-40.8,-63,59993
1767,Флоренсио-Варела,Florencio Varela,Аргентина,Argentina,AR,-34.80896,-58.27623,146704
1783,Бельграно,Belgrano,Аргентина,Argentina,AR,-34.5627,-58.45829,126831
1787,Сан-Рафаэль,San Rafael,Аргентина,Argentina,AR,-34.6175,-68.335555555,215020
1793,Сан-Фернандо-дель-Валье-де-Катамарка,San Fernando del Valle de Catamarca,Аргентина,Argentina,AR,-28.468611111,-65.779166666,159139
1811,Ла-Калера,La Calera,Аргентина,Argentina,AR,-31.343888888,-64.335277777,45600
1834,Боэдо (Буэнос-Айрес),Boedo,Аргентина,Argentina,AR,-34.633333333,-58.416666666,47306
1837,Чимбас,Chimbas Department,Аргентина,Argentina,AR,-31.48333333,-68.53333333,105627
1858,Венадо-Туэрто,Venado Tuerto,Аргентина,Argentina,AR,-33.75,-61.966666666,83263
1862,Луэна,Luena,Ангола,Angola,AO,-11.783,19.913,357413
1866,Сан-Хуан,San Juan,Аргентина,Argentina,AR,-31.5375,-68.536388888,471389
1878,Сан-Николас-де-лос-Аройос,San Nicolás de los Arroyos,Аргентина,Argentina,AR,-33.333333333,-60.216666666,160000
1887,Санта-Фе,Santa Fe,Аргентина,Argentina,AR,-31.633333333,-60.7,405683
1896,Лухан,Luján,Аргентина,Argentina,AR,-34.570277777,-59.105,97363
1908,Формоса,Formosa,Аргентина,Argentina,AR,-26.184722222,-58.175833333,222226
1910,Сальта,Salta,Аргентина,Argentina,AR,-24.788333333,-65.410555555,535303
1931,Асуль,Azul,Аргентина,Argentina,AR,-36.78333333,-59.85,55728
1932,Корриентес,Corrientes,Аргентина,Argentina,AR,-27.483333333,-58.816666666,352646
1938,Сентенарио,Centenario,Аргентина,Argentina,AR,-38.816666666,-68.133333333,48721
1963,Неукен,Neuquén,Аргентина,Argentina,AR,-38.951833333,-68.059194444,288896
1964,Ла-Банда,La Banda,Аргентина,Argentina,AR,-27.733333333,-64.25,106441
1974,Вилья-Конститусьон,Villa Constitución,Аргентина,Argentina,AR,-33.233333333,-60.333333333,47374
1981,Маланже,Malanje,Ангола,Angola,AO,-9.533333333,16.35,604215
1982,Кабинда,Cabinda,Ангола,Angola,AO,-5.56717,12.19787,739182
2008,Оттакринг,Ottakring,Австрия,Austria,AT,48.2125,16.3106,103117
2050,Альта-Грасия,Alta Gracia,Аргентина,Argentina,AR,-31.666666666,-64.433333333,48140
2200,Сан-Карлос-де-Барилоче,Bariloche,Аргентина,Argentina,AR,-41.15,-71.3,135755
2356,Зиммеринг,Simmering,Австрия,Austria,AT,48.17,16.45,97333
2502,Вилла-Мерседес,Villa Mercedes,Аргентина,Argentina,AR,-33.666666666,-65.466666666,131046
2927,Вельс,Wels,Австрия,Austria,AT,48.15,14.016666666,65303
3329,Майдлинг,Meidling,Австрия,Austria,AT,48.17192,16.32586,97634
3396,Хитцинг,Hietzing,Австрия,Austria,AT,48.17547,16.29101,54040
3820,Хернальс,Hernals,Австрия,Austria,AT,48.2325,16.2794,57027
4034,Лонсестон,Launceston,Австралия,Australia,AU,-41.444444444,147.137777777,80943
4093,Порт-Маккуори,Port Macquarie,Австралия,Australia,AU,-31.431666666,152.9177778,47693
4140,Донауштадт,Donaustadt,Австрия,Austria,AT,48.2181,16.4831,195230
4226,Таунсвилл,Townsville,Австралия,Australia,AU,-19.262222222,146.815833333,173724
4282,Дарвин,Darwin,Австралия,Australia,AU,-12.438055555,130.841111111,122207
4299,Аделаида,Adelaide,Австралия,Australia,AU,-34.9275,138.6,1387290
4724,Банбери,Bunbury,Австралия,Australia,AU,-33.327222222,115.636944444,75196
4725,Манджера,Mandurah,Австралия,Australia,AU,-32.528888888,115.723055555,107641
4770,Фаворитен,Favoriten,Австрия,Austria,AT,48.1578,16.3592,207193
4835,Перт,Perth,Австралия,Australia,AU,-31.95224,115.8614,2043762
4883,Ориндж,Orange,Австралия,Australia,AU,-33.281666666,149.1011111,41232
4935,Сидней,Sydney,Австралия,Australia,AU,-33.86785,151.20732,4698656
4970,Мельбурн,Melbourne,Австралия,Australia,AU,-37.814166666,144.963055555,5031195
5042,Канберра,Canberra,Австралия,Australia,AU,-35.28346,149.12807,452670
5094,Бервик,Berwick,Австралия,Australia,AU,-38.031,145.344,50298
5201,Херви-Бей,Hervey Bay,Австралия,Australia,AU,-25.28762,152.76936,57722
5345,Хобарт,Hobart,Австралия,Australia,AU,-42.883333333,147.316666666,197451
5355,Крейджиберн,Craigieburn,Австралия,Australia,AU,-37.594,144.934,65178
5493,Голд-Кост,Gold Coast,Австралия,Australia,AU,-28.016666666,153.4,607665
5499,Брисбен,Brisbane,Австралия,Australia,AU,-27.467777777,153.027777777,2706966
5657,Бендиго,Bendigo,Австралия,Australia,AU,-36.75,144.266666666,103034
5762,Балларат,Ballarat,Австралия,Australia,AU,-37.560833333,143.8475,116201
5893,Джелонг,Geelong,Австралия,Australia,AU,-38.15,144.35,180239
5958,Даббо,Dubbo,Австралия,Australia,AU,-32.248333333,148.6011111,43516
5998,Джалилабад,Jalilabad,Азербайджан,Azerbaijan,AZ,39.204166666,48.495833333,43300
6061,Травник,Travnik,Босния и Герцеговина,Bosnia and Herzegovina,BA,44.225421879,17.666868517,53482
6072,Хырдалан,Khyrdalan,Азербайджан,Azerbaijan,AZ,40.448611111,49.756388888,100900
6073,Кишоргандж,Kishoreganj,Бангладеш,Bangladesh,BD,24.4333,90.7833,90690
6078,Тхакургаон,Thakurgaon,Бангладеш,Bangladesh,BD,26.030833333,88.47,71096
6085,Бриджтаун,Bridgetown,Барбадос,Barbados,BB,13.0975,-59.616666666,110000
6090,"Джамалпур (город, Бангладеш)",Jamalpur,Бангладеш,Bangladesh,BD,24.92,89.96,142764
6103,Навабгандж,Nawabganj,Бангладеш,Bangladesh,BD,24.6,88.2667,142361
6132,Динаджпур,Dinajpur,Бангладеш,Bangladesh,BD,25.63,88.65,206200
6133,Тангайл,Tangail,Бангладеш,Bangladesh,BD,24.4,90,180144
6136,Ленкорань,Lankaran,Азербайджан,Azerbaijan,AZ,38.753611111,48.851111111,52952
6166,Мадарипур,Madaripur,Бангладеш,Bangladesh,BD,23.170833333,90.209444444,84789
6190,Саидпур,Saidpur,Бангладеш,Bangladesh,BD,25.7833,88.9,199422
6220,Карачухур,Qaraçuxur,Азербайджан,Azerbaijan,AZ,40.396944444,49.973333333,85900
6254,Бакиханов,Bakikhanov,Азербайджан,Azerbaijan,AZ,40.421666666,49.964444444,71600
6264,Сараево,Sarajevo,Босния и Герцеговина,Bosnia and Herzegovina,BA,43.856388888,18.413055555,275524
6289,Гёйчай,Goychay,Азербайджан,Azerbaijan,AZ,40.655277777,47.738888888,42500
6324,Мингечевир,Mingachevir,Азербайджан,Azerbaijan,AZ,40.77,47.048888888,106100
6389,Мостар,Mostar,Босния и Герцеговина,Bosnia and Herzegovina,BA,43.343611111,17.8075,105448
6395,Приедор,Prijedor,Босния и Герцеговина,Bosnia and Herzegovina,BA,44.966666666,16.7,89397
6446,Агджабеди,Aghjabadi,Азербайджан,Azerbaijan,AZ,40.048938888,47.4502,40946
6472,Зворник,Zvornik,Босния и Герцеговина,Bosnia and Herzegovina,BA,44.383333333,19.1,63686
6599,Барисал,Barishal,Бангладеш,Bangladesh,BD,22.7,90.366666666,328278
6606,Тонги,Tongi,Бангладеш,Bangladesh,BD,23.883333333,90.4,476350
6619,Баня-Лука,Banja Luka,Босния и Герцеговина,Bosnia and Herzegovina,BA,44.7725,17.1925,185042
6641,Баладжары,Bilajari,Азербайджан,Azerbaijan,AZ,40.431388888,49.808055555,42194
6669,Ханкенди,Stepanakert,Азербайджан,Azerbaijan,AZ,39.815277777,46.751944444,53400
6680,Тузла,Tuzla,Босния и Герцеговина,Bosnia and Herzegovina,BA,44.53842,18.66709,110979
6693,Саткхира,Satkhira,Бангладеш,Bangladesh,BD,22.716667,89.1,113322
6694,Зеница,Zenica,Босния и Герцеговина,Bosnia and Herzegovina,BA,44.201666666,17.903888888,164423
6699,Бихач,Bihać,Босния и Герцеговина,Bosnia and Herzegovina,BA,44.814722222,15.869166666,56261
6737,Бхайраб,Bhairab Bazar,Бангладеш,Bangladesh,BD,24.05,90.988333333,105457
6755,Нахичевань,Nakhchivan,Азербайджан,Azerbaijan,AZ,39.208888888,45.412222222,94500
6776,Нараянгандж,Narayanganj,Бангладеш,Bangladesh,BD,23.616666666,90.5,223622
6777,Шеки,Shaki,Азербайджан,Azerbaijan,AZ,41.191944444,47.170555555,68360
6790,Нарсингди,Narsingdi,Бангладеш,Bangladesh,BD,23.9,90.716666666,185128
6836,Пабна,Pabna,Бангладеш,Bangladesh,BD,24.016666666,89.3,186781
6846,Раджшахи,Rajshahi,Бангладеш,Bangladesh,BD,24.366666666,88.6,449756
6851,Маулвибазар,Maulvi Bazar,Бангладеш,Bangladesh,BD,24.5,91.833333333,57441
6854,Шамкир,Şəmkir,Азербайджан,Azerbaijan,AZ,40.856388888,46.017222222,40600
6903,Кокс-Базар,Cox's Bazar,Бангладеш,Bangladesh,BD,21.583333333,92.016666666,167477
6972,Бужумбура,Bujumbura,Бурунди,Burundi,BI,-3.3825,29.361111111,658859
6987,Никки (коммуна),Nikki,Бенин,Benin,BJ,9.93333333,3.20833333,66109
7000,Бандар-Сери-Бегаван,Bandar Seri Begawan,Бруней,Brunei,BN,4.916666666,114.916666666,50000
7032,Санта-Крус-де-ла-Сьерра,Santa Cruz de la Sierra,Боливия,Bolivia,BO,-17.789166666,-63.1975,3151676
7039,Монтеро,Montero,Боливия,Bolivia,BO,-17.333333333,-63.383333333,112837
7066,Тариха,Tarija,Боливия,Bolivia,BO,-21.533888888,-64.734166666,179528
7075,Баникоара,Banikoara,Бенин,Benin,BJ,11.3,2.433333333,867463
7111,Абомей-Калави,Abomey-Calavi,Бенин,Benin,BJ,6.448611111,2.355555555,385755
7119,Риберальта,Riberalta,Боливия,Bolivia,BO,-11.005,-66.066111111,78100
7129,Конгуси,Kongoussi,Буркина-Фасо,Burkina Faso,BF,13.333333333,-1.533333333,53641
7138,Банфора,Banfora,Буркина-Фасо,Burkina Faso,BF,10.630833333,-4.758888888,117200
7153,Уагадугу,Ouagadougou,Буркина-Фасо,Burkina Faso,BF,12.368611111,-1.5275,2453496
7179,Фада-Нгурма,Fada N’Gourma,Буркина-Фасо,Burkina Faso,BF,12.05,0.366666666,73200
7195,Канди,Kandi,Бенин,Benin,BJ,11.128611111,2.936944444,179290
7220,Варнес,Warnes,Боливия,Bolivia,BO,-17.51027778,-63.16472222,214216
7243,Натитингу,Natitingou,Бенин,Benin,BJ,10.3,1.366666666,53284
7265,Лео,Léo,Буркина-Фасо,Burkina Faso,BF,11.1,-2.1,51746
7322,Риффа,Riffa,Бахрейн,Bahrain,BH,26.13,50.555,115495
7342,Манама,Manama,Бахрейн,Bahrain,BH,26.225,50.5775,297502
7398,Тенкодого,Tenkodogo,Буркина-Фасо,Burkina Faso,BF,11.783333333,-0.366666666,58600
7416,Абомей,Abomey,Бенин,Benin,BJ,7.185277777,1.991388888,117824
7440,Даса-Зуме,Dassa-Zoumé,Бенин,Benin,BJ,7.75,2.183333333,112118
7448,София,Sofia,Болгария,Bulgaria,BG,42.697886,23.321726,1404116
7453,Гурси,Gourcy,Буркина-Фасо,Burkina Faso,BF,13.20776,-2.35893,40144
7468,Титао,Titao,Буркина-Фасо,Burkina Faso,BF,13.7667353,-2.0736431,48242
7476,Тринидад,Trinidad,Боливия,Bolivia,BO,-14.833333333,-64.9,101454
7484,Котону,Cotonou,Бенин,Benin,BJ,6.366666666,2.416666666,679012
7519,Хамад,Hamad Town,Бахрейн,Bahrain,BH,26.112777777,50.513888888,52718
7538,Оруро,Oruro,Боливия,Bolivia,BO,-17.966666666,-67.116666666,264683
7555,Ла-Пас,La Paz,Боливия,Bolivia,BO,-16.495833333,-68.133333333,2867504
7561,Локоса,Lokossa,Бенин,Benin,BJ,6.633333333,1.716666666,77065
7573,Параку,Parakou,Бенин,Benin,BJ,9.35,2.616666666,255478
7635,Джугу,Djougou,Бенин,Benin,BJ,9.7,1.666666666,237040
7646,Уахигуя,Ouahigouya,Буркина-Фасо,Burkina Faso,BF,13.583333333,-2.416666666,124580
7652,Кая,Kaya,Буркина-Фасо,Burkina Faso,BF,13.083333333,-1.083333333,122949
7666,Сукре,Sucre,Боливия,Bolivia,BO,-19.0475,-65.26,360544
7684,Сипе-Сипе,Sipe Sipe,Боливия,Bolivia,BO,-17.45,-66.38333333,47000
7686,Кочабамба,Cochabamba,Боливия,Bolivia,BO,-17.3935419,-66.1570139,632013
7690,Порто-Ново,Porto-Novo,Бенин,Benin,BJ,6.483333333,2.616666666,264320
7698,Кильякольо,Quillacollo,Боливия,Bolivia,BO,-17.3975,-66.281666666,137182
7714,Кобиха,Cobija,Боливия,Bolivia,BO,-11.0182955,-68.7537452,46267
7726,Потоси,Potosí,Боливия,Bolivia,BO,-19.58361,-65.75306,189652
7736,Коме,Comè,Бенин,Benin,BJ,6.4,1.8833,42586
7739,Кудугу,Koudougou,Буркина-Фасо,Burkina Faso,BF,12.25,-2.366666666,160207
7744,Дедугу,Dédougou,Буркина-Фасо,Burkina Faso,BF,12.466666666,-3.466666666,63617
7821,Вида,Ouidah,Бенин,Benin,BJ,6.366666666,2.083333333,162034
7822,Гаранго,Garango,Буркина-Фасо,Burkina Faso,BF,11.804722222,-0.548888888,45150
7850,Дори,Dori,Буркина-Фасо,Burkina Faso,BF,14.03277,-0.03483,46521
7864,Купела,Koupéla,Буркина-Фасо,Burkina Faso,BF,12.179444444,-0.351666666,45900
7868,Мадинат-Иса,Isa Town,Бахрейн,Bahrain,BH,26.17361,50.54778,61293
7883,Сакете,Sakété,Бенин,Benin,BJ,6.736388888,2.658055555,43541
7918,Брюссель,City of Brussels,Бельгия,Belgium,BE,50.85045,4.34878,195546
7921,Якуиба,Yacuiba,Боливия,Bolivia,BO,-22.013888888,-63.677777777,97296
8063,Парати,Paraty,Бразилия,Brazil,BR,-23.1484,-44.70616,45243
8368,Серрана,Serrana,Бразилия,Brazil,BR,-21.210833333,-47.595833333,43909
8524,Параиба-ду-Сул,Paraíba do Sul,Бразилия,Brazil,BR,-22.161944444,-43.292777777,42063
8834,Саранди,Sarandi,Бразилия,Brazil,BR,-23.443888888,-51.873888888,118455
8965,Паулу-Афонсу,Paulo Afonso,Бразилия,Brazil,BR,-9.407777777,-38.221944444,112870
8986,Молепололе,Molepolole,Ботсвана,Botswana,BW,-24.4066,25.4951,67598
9015,Мочуди,Mochudi,Ботсвана,Botswana,BW,-24.416666666,26.15,44339
9029,Эзмералдас,Esmeraldas,Бразилия,Brazil,BR,-19.762777777,-44.313888888,85598
9036,Франсистаун,Francistown,Ботсвана,Botswana,BW,-21.173611111,27.5125,103417
9134,Волковыск,Vawkavysk,Белоруссия,Belarus,BY,53.166666666,24.466666666,41510
9151,Габороне,Gaborone,Ботсвана,Botswana,BW,-24.656944444,25.908611111,246325
9256,Жлобин,Zhlobin,Белоруссия,Belarus,BY,52.9,30.033333333,76844
9259,Могодитшане,Mogoditshane,Ботсвана,Botswana,BW,-24.633333333,25.866666666,88004
9279,Нассау,Nassau,Багамские Острова,The Bahamas,BS,25.078055555,-77.338611111,274400
9304,Тхимпху,Thimphu,Бутан,Bhutan,BT,27.46609,89.64191,114551
9354,Витебск,Vitebsk,Белоруссия,Belarus,BY,55.183333333,30.166666666,358395
9432,Селеби-Пхикве,Selebi-Phikwe,Ботсвана,Botswana,BW,-21.966666666,27.916666666,49724
9494,Жодино,Žodzina,Белоруссия,Belarus,BY,54.1,28.35,63744
9571,Умайта,Humaitá,Бразилия,Brazil,BR,-7.506111111,-63.020833333,57473
9574,Канье,Kanye,Ботсвана,Botswana,BW,-24.983333333,25.35,48028
9602,Серове,Serowe,Ботсвана,Botswana,BW,-22.383333,26.716667,47447
9629,Каейрас,Caieiras,Бразилия,Brazil,BR,-23.38134,-46.73815,95032
9698,Махалапье,Mahalapye,Ботсвана,Botswana,BW,-23.1041,26.8142,48431
9784,Бразилиа,Brasília,Бразилия,Brazil,BR,-15.77972,-47.92972,2817381
9814,Лауру-ди-Фрейтас,Lauro de Freitas,Бразилия,Brazil,BR,-12.893888888,-38.326944444,203331
9920,Баррейрас,Barreiras,Бразилия,Brazil,BR,-12.152777777,-44.99,159734
9940,Корнуолл,Cornwall,Канада,Canada,CA,45.0275,-74.74,46589
9941,Леви,Lévis,Канада,Canada,CA,46.8,-71.1833,154091
9950,Слоним,Slonim,Белоруссия,Belarus,BY,53.083333333,25.316666666,48907
9951,Монктон,Moncton,Канада,Canada,CA,46.093333,-64.775,79470
9953,Могилёв,Mogilev,Белоруссия,Belarus,BY,53.9168,30.3449,353110
9967,Нью-Уэстминстер,New Westminster,Канада,Canada,CA,49.2069,-122.911,70996
9977,Салаберри-де-Валлифилд,Salaberry-de-Valleyfield,Канада,Canada,CA,45.25,-74.133333333,44838
9983,Белвилл,Belleville,Канада,Canada,CA,44.166666666,-77.383333333,50716
9988,Солигорск,Salihorsk,Белоруссия,Belarus,BY,52.78416,27.5425,97818
9997,Ричмонд,Richmond,Канада,Canada,CA,49.166666666,-123.133333333,209937
9998,Форт-Мак-Мюррей,Fort McMurray,Канада,Canada,CA,56.72676,-111.38103,68002
9999,Норт-Йорк,North York,Канада,Canada,CA,43.7797,-79.4156,672955
10016,Полоцк,Polatsk,Белоруссия,Belarus,BY,55.483333333,28.8,79579
10018,Гомель,Gomel,Белоруссия,Belarus,BY,52.441666666,30.983333333,501102
10040,Гранд-Прери,Grande Prairie,Канада,Canada,CA,55.16667,-118.80271,64141
10042,Речица,Rechytsa,Белоруссия,Belarus,BY,52.3617,30.3916,65213
10043,Гуэлф,Guelph,Канада,Canada,CA,43.55,-80.25,143740
10065,Эрдри,Airdrie,Канада,Canada,CA,51.2917,-114.014,74100
10076,Куинт-Уэст,Quinte West,Канада,Canada,CA,44.196388888,-77.581944444,43086
10103,Викториавилл,Victoriaville,Канада,Canada,CA,46.05,-71.966666666,48461
10109,Гатино,Gatineau,Канада,Canada,CA,45.483333,-75.65,292281
10124,Труа-Ривьер,Trois-Rivières,Канада,Canada,CA,46.35,-72.55,142598
10132,Уинсор,Windsor,Канада,Canada,CA,42.31729,-83.03526,229660
10140,Репантиньи,Repentigny,Канада,Canada,CA,45.733333333,-73.466666666,88088
10141,Виннипег,Winnipeg,Канада,Canada,CA,49.895555555,-97.138611111,749607
10153,Кокуитлам,Coquitlam,Канада,Canada,CA,49.283888888,-122.791944444,148625
10154,Шербрук,Sherbrooke,Канада,Canada,CA,45.4,-71.9,175114
10163,Борисов,Barysaw,Белоруссия,Belarus,BY,54.22429,28.51198,135696
10175,Руэн-Норанда,Rouyn-Noranda,Канада,Canada,CA,48.2333,-79.0167,43073
10180,Грейтер-Садбери,Greater Sudbury,Канада,Canada,CA,46.49,-81.01,166004
10186,Летбридж,Lethbridge,Канада,Canada,CA,49.69999,-112.81856,98406
10209,Сент-Альберт,St. Albert,Канада,Canada,CA,53.630277777,-113.625833333,68232
10230,Виктория,Victoria,Канада,Canada,CA,48.422151,-123.3657,91867
10232,Эдмонтон,Edmonton,Канада,Canada,CA,53.533333333,-113.5,1010899
10236,Драммондвилл,Drummondville,Канада,Canada,CA,45.883333333,-72.483333333,81551
10237,Сент-Джон,Saint John,Канада,Canada,CA,45.2796,-66.0628,67575
10253,Сент-Катаринс,St. Catharines,Канада,Canada,CA,43.183333333,-79.233333333,136803
10270,Ричмонд-Хилл,Richmond Hill,Канада,Canada,CA,43.871388888,-79.437222222,202022
10280,Бобруйск,Babruysk,Белоруссия,Belarus,BY,53.15,29.233333333,207351
10283,Брандон,Brandon,Канада,Canada,CA,49.833333333,-99.95,51313
10290,Сент-Джонс,St. John's,Канада,Canada,CA,47.561388888,-52.711944444,110525
10311,Молодечно,Maladzyechna,Белоруссия,Belarus,BY,54.313611111,26.851666666,89068
10320,Су-Сент-Мари,Sault Ste. Marie,Канада,Canada,CA,46.5333,-84.35,73368
10349,Вернон,Vernon,Канада,Canada,CA,50.267,-119.272,44519
10353,Бленвиль,Blainville,Канада,Canada,CA,45.666666666,-73.883333333,62643
10360,Медисин-Хат,Medicine Hat,Канада,Canada,CA,50.03928,-110.67661,63271
10372,Эйджакс,Ajax,Канада,Canada,CA,43.858333333,-79.036388888,126666
10374,Тербон,Terrebonne,Канада,Canada,CA,45.7,-73.633333333,122098
10382,Тандер-Бей,Thunder Bay,Канада,Canada,CA,48.3822,-89.2461,108843
10399,Римуски,Rimouski,Канада,Canada,CA,48.45,-68.533333333,50036
10409,Саскатун,Saskatoon,Канада,Canada,CA,52.133333333,-106.683333333,266141
10413,Лонгёй,Longueuil,Канада,Canada,CA,45.514083333,-73.438027777,253629
10422,Реджайна,Regina,Канада,Canada,CA,50.454722222,-104.606666666,226404
10439,Ошава,Oshawa,Канада,Canada,CA,43.9,-78.85,175383
10457,Ньюмаркет,Newmarket,Канада,Canada,CA,44.06,-79.45,84224
10464,Сент-Эсташ,Saint-Eustache,Канада,Canada,CA,45.566666666,-73.9,46434
10473,Белиз,Belize City,Белиз,Belize,BZ,17.498611111,-88.188611111,60900
10484,Лида,Lida,Белоруссия,Belarus,BY,53.895555555,25.295833333,103916
10485,Берлингтон,Burlington,Канада,Canada,CA,43.325,-79.8,186948
10501,Мэпл-Ридж,Maple Ridge,Канада,Canada,CA,49.2167,-122.6,82256
10505,Кобрин,Kobryn,Белоруссия,Belarus,BY,52.2125,24.356666666,52635
10509,Калгари,Calgary,Канада,Canada,CA,51.05011,-114.08529,1306784
10512,Келоуна,Kelowna,Канада,Canada,CA,49.8801,-119.4436,144576
10517,Бушервиль,Boucherville,Канада,Canada,CA,45.6,-73.45,42425
10520,Оттава,Ottawa,Канада,Canada,CA,45.424722222,-75.695,1017449
10525,Шавиниган,Shawinigan,Канада,Canada,CA,46.5667,-72.75,51508
10528,Этобико,Etobicoke,Канада,Canada,CA,43.6161,-79.5125,365143
10534,Вудсток,Woodstock,Канада,Canada,CA,43.130555555,-80.746666666,40902
10556,Гранби,Granby,Канада,Canada,CA,45.4,-72.733333333,70823
10570,Виль-Мари,Ville-Marie,Канада,Canada,CA,45.508611111,-73.562777777,84013
10575,Ред-Дир,Red Deer,Канада,Canada,CA,52.26682,-113.802,100844
10588,Светлогорск,Svyetlahorsk,Белоруссия,Belarus,BY,52.633333333,29.733333333,62602
10594,Питерборо,Peterborough,Канада,Canada,CA,44.3,-78.316666666,81032
10608,Мозырь,Mazyr,Белоруссия,Belarus,BY,52.05,29.233333333,105152
10639,Ниагара-Фолс,Niagara Falls,Канада,Canada,CA,43.116666666,-79.066666666,88071
10640,Водрёй-Дорион,Vaudreuil-Dorion,Канада,Canada,CA,45.4,-74.033333333,43228
10641,Непин,Nepean,Канада,Canada,CA,45.3417,-75.7583,180000
10651,Сарния,Sarnia,Канада,Canada,CA,42.9745,-82.4066,72320
10655,Вон,Vaughan,Канада,Canada,CA,43.833333333,-79.5,323103
10660,Гамильтон,Hamilton,Канада,Canada,CA,43.256666666,-79.869166666,569353
10665,Оквилл,Oakville,Канада,Canada,CA,43.45,-79.683333333,213759
10670,Мирабель,Mirabel,Канада,Canada,CA,45.65,-74.083333333,64032
10679,Маркем,Markham,Канада,Canada,CA,43.8833,-79.25,338503
10683,Кингстон,Kingston,Канада,Canada,CA,44.233333333,-76.5,132485
10710,Брест,Brest,Белоруссия,Belarus,BY,52.084722222,23.656944444,344470
10715,Сагеней,Saguenay,Канада,Canada,CA,48.4167,-71.0667,147952
10720,Тимминс,Timmins,Канада,Canada,CA,48.471666666,-81.331388888,41788
10725,Пикеринг,Pickering,Канада,Canada,CA,43.906944444,-79.130833333,91771
10730,Нанаймо,Nanaimo,Канада,Canada,CA,49.16638,-123.94003,99863
10733,Барри,Barrie,Канада,Canada,CA,44.39,-79.686,147829
10740,Абботсфорд,Abbotsford,Канада,Canada,CA,49.05798,-122.25257,153524
10741,Фредериктон,Fredericton,Канада,Canada,CA,45.95,-66.666666666,63116
10764,Норт-Бей,North Bay,Канада,Canada,CA,46.309166666,-79.461388888,51553
10765,Кеймбридж,Cambridge,Канада,Canada,CA,43.358333333,-80.313888888,138479
10770,Шервуд-Парк,Sherwood Park,Канада,Canada,CA,53.51684,-113.3187,72017
10796,Камлупс,Kamloops,Канада,Canada,CA,50.6761,-120.341,97902
10806,Бернаби,Burnaby,Канада,Canada,CA,49.25,-122.949167,249125
10812,Гродно,Hrodna,Белоруссия,Belarus,BY,53.666666666,23.816666666,361115
10813,Брамптон,Brampton,Канада,Canada,CA,43.683333333,-79.766666666,656480
10820,Принс-Джордж,Prince George,Канада,Canada,CA,53.9166,-122.75301,74003
10841,Ванкувер,Vancouver,Канада,Canada,CA,49.260833333,-123.113888888,662248
10863,Порт-Коквитлам,Port Coquitlam,Канада,Canada,CA,49.2625,-122.781,58000
10869,Миссиссога,Mississauga,Канада,Canada,CA,43.6,-79.65,717961
10881,Брантфорд,Brantford,Канада,Canada,CA,43.140833333,-80.263055555,104688
10904,Лондон,London,Канада,Canada,CA,42.9837,-81.2497,422324
10906,Новополоцк,Novopolotsk,Белоруссия,Belarus,BY,55.533333333,28.666666666,95717
10908,Торонто,Toronto,Канада,Canada,CA,43.670277777,-79.386666666,2794356
10909,Шатоге,Châteauguay,Канада,Canada,CA,45.383333333,-73.75,51614
10920,Китченер,Kitchener,Канада,Canada,CA,43.45,-80.483333333,256885
10923,Милтон,Milton,Канада,Canada,CA,43.508333333,-79.883333333,132979
10929,Чилливак,Chilliwack,Канада,Canada,CA,49.16638,-121.95257,83788
10933,Уэлленд,Welland,Канада,Canada,CA,42.983333333,-79.233333333,52293
10968,Камина,Kamina,Демократическая Республика Конго,Democratic Republic of the Congo,CD,-8.73508,24.99798,200184
10970,Моанда,Moanda,Демократическая Республика Конго,Democratic Republic of the Congo,CD,-5.93,12.35,90812
10985,Басоко,Basoko,Демократическая Республика Конго,Democratic Republic of the Congo,CD,1.233333333,23.6,76371
10996,Лозанна,Lausanne,Швейцария,Switzerland,CH,46.533333333,6.633333333,141418
11007,Пуэнт-Нуар,Pointe-Noire,Республика Конго,Republic of the Congo,CG,-4.77609,11.86352,1420612
11008,Булунгу,Bulungu,Демократическая Республика Конго,Democratic Republic of the Congo,CD,-4.55,18.58333333,81393
11021,Акети,Aketi,Демократическая Республика Конго,Democratic Republic of the Congo,CD,2.74,23.78,150000
11049,Бамбари,Bambari,Центральноафриканская Республика,Central African Republic,CF,5.766666666,20.683333333,41356
11061,Гемена,Gemena,Демократическая Республика Конго,Democratic Republic of the Congo,CD,3.25,19.766666666,197159
11090,Ликаси,Likasi,Демократическая Республика Конго,Democratic Republic of the Congo,CD,-10.983333333,26.733333333,422535
11106,Увира,Uvira,Демократическая Республика Конго,Democratic Republic of the Congo,CD,-3.4044,29.1379,407092
11168,Илебо,Ilebo,Демократическая Республика Конго,Democratic Republic of the Congo,CD,-4.316666666,20.6,117245
11171,Буниа,Bunia,Демократическая Республика Конго,Democratic Republic of the Congo,CD,1.566666666,30.25,327837
11177,Бома,Boma,Демократическая Республика Конго,Democratic Republic of the Congo,CD,-5.85,13.05,297009
11182,Бимбо,Bimbo,Центральноафриканская Республика,Central African Republic,CF,4.331305555,18.516333333,348802
11221,Кёниц,Köniz,Швейцария,Switzerland,CH,46.925,7.415277777,41772
11228,Люцерн,Lucerne,Швейцария,Switzerland,CH,47.0523,8.3059,81691
11259,Лугано,Lugano,Швейцария,Switzerland,CH,46.010277777,8.9625,63185
11275,Женева,Geneva,Швейцария,Switzerland,CH,46.2,6.15,203840
11296,Бутембо,Butembo,Демократическая Республика Конго,Democratic Republic of the Congo,CD,0.1251,29.299,154621
11302,Карно,Carnot,Центральноафриканская Республика,Central African Republic,CF,4.933333333,15.866666666,45421
11374,Кипуши,Kipushi,Демократическая Республика Конго,Democratic Republic of the Congo,CD,-11.76,27.25,169635
11400,Винтертур,Winterthur,Швейцария,Switzerland,CH,47.4992,8.72671,111840
11466,Лоджа,Lodja,Демократическая Республика Конго,Democratic Republic of the Congo,CD,-3.524166666,23.596388888,91409
11473,Бумба,Bumba,Демократическая Республика Конго,Democratic Republic of the Congo,CD,2.19,22.46,103328
11490,Киквит,Kikwit,Демократическая Республика Конго,Democratic Republic of the Congo,CD,-5.033333333,18.816666666,397737
11519,Бута,Buta,Демократическая Республика Конго,Democratic Republic of the Congo,CD,2.82,24.74,80751
11555,Кисангани,Kisangani,Демократическая Республика Конго,Democratic Republic of the Congo,CD,0.515277777,25.191111111,1366000
11561,Лубумбаши,Lubumbashi,Демократическая Республика Конго,Democratic Republic of the Congo,CD,-11.664166666,27.482777777,1786397
11567,Тшела,Tshela,Демократическая Республика Конго,Democratic Republic of the Congo,CD,-4.996944444,12.948333333,45051
11580,Конголо,Kongolo,Демократическая Республика Конго,Democratic Republic of the Congo,CD,-5.4,27,86932
11596,Мбандака,Mbandaka,Демократическая Республика Конго,Democratic Republic of the Congo,CD,0.048611111,18.260277777,455011
11604,Лисала,Lisala,Демократическая Республика Конго,Democratic Republic of the Congo,CD,2.14,21.51,79235
11607,Колвези,Kolwezi,Демократическая Республика Конго,Democratic Republic of the Congo,CD,-10.716666666,25.466666666,790248
11621,Мбанза-Нгунгу,Mbanza-Ngungu,Демократическая Республика Конго,Democratic Republic of the Congo,CD,-5.25,14.866666666,142773
11729,Болобо,Bolobo,Демократическая Республика Конго,Democratic Republic of the Congo,CD,-2.16,16.24,47032
11731,Буар,Bouar,Центральноафриканская Республика,Central African Republic,CF,5.95,15.6,40353
11733,Букама,Bukama,Демократическая Республика Конго,Democratic Republic of the Congo,CD,-9.2,25.83333333,105530
11746,Берберати,Berbérati,Центральноафриканская Республика,Central African Republic,CF,4.266666666,15.783333333,76918
11753,Гандажика,Gandajika,Демократическая Республика Конго,Democratic Republic of the Congo,CD,-6.75,23.966666666,208051
11756,Кинду,Kindu,Демократическая Республика Конго,Democratic Republic of the Congo,CD,-2.95,25.916666666,172321
11782,Боэнде,Boende,Демократическая Республика Конго,Democratic Republic of the Congo,CD,-0.281666666,20.880555555,50794
11792,Исиро,Isiro,Демократическая Республика Конго,Democratic Republic of the Congo,CD,2.783333333,27.616666666,255409
11799,Анкастер,Ancaster,Канада,Canada,CA,43.225555555,-79.976666666,40557
11817,Ист-Йорк,East York,Канада,Canada,CA,43.6913,-79.3278,115365
11820,Гбадолите,Gbadolite,Демократическая Республика Конго,Democratic Republic of the Congo,CD,4.275,21,73835
11826,Лубомо,Dolisie,Республика Конго,Republic of the Congo,CG,-4.19834,12.66664,117920
11840,Кананга,Kananga,Демократическая Республика Конго,Democratic Republic of the Congo,CD,-5.896111111,22.416666666,1971704
11845,Гома,Goma Nord Kivu,Демократическая Республика Конго,Democratic Republic of the Congo,CD,-1.679444444,29.233611111,781875
11856,Вест-Ванкувер,West Vancouver,Канада,Canada,CA,49.3667,-123.167,42473
11861,Чикапа,Tshikapa,Демократическая Республика Конго,Democratic Republic of the Congo,CD,-6.416666666,20.8,1006387
11906,Калемие,Kalemie,Демократическая Республика Конго,Democratic Republic of the Congo,CD,-5.912777777,29.190555555,146974
11919,Бандунду,Bandundu,Демократическая Республика Конго,Democratic Republic of the Congo,CD,-3.31667,17.38333,202904
11923,Мвене-Диту,Mwene-Ditu,Демократическая Республика Конго,Democratic Republic of the Congo,CD,-7,23.45,189177
11932,Цюрих,Zurich,Швейцария,Switzerland,CH,47.374444444,8.541111111,447082
11941,Лум,Loum,Камерун,Cameroon,CM,4.7,9.73,47305
11942,Буафле,Bouaflé,Кот-д’Ивуар,Ivory Coast,CI,6.990277777,-5.744166666,213967
11958,Гигло,Guiglo,Кот-д’Ивуар,Ivory Coast,CI,6.543611111,-7.493333333,171454
11970,Ямусукро,Yamoussoukro,Кот-д’Ивуар,Ivory Coast,CI,6.816111111,-5.274166666,422072
11971,Феркеседугу,Ferkessédougou,Кот-д’Ивуар,Ivory Coast,CI,9.592777777,-5.194444444,160267
12021,Биль,Biel/Bienne,Швейцария,Switzerland,CH,47.137222222,7.247222222,55070
12023,Исиа,Issia,Кот-д’Ивуар,Ivory Coast,CI,6.492222222,-6.585555555,126252
12024,Бертуа,Bertoua,Камерун,Cameroon,CM,4.583333333,13.683333333,88462
12032,Мбуда,Mbouda,Камерун,Cameroon,CM,5.62,10.25,49313
12095,Аньибилекру,Agnibilékrou,Кот-д’Ивуар,Ivory Coast,CI,7.131111111,-3.203888888,99501
12100,Бундьяли,Boundiali,Кот-д’Ивуар,Ivory Coast,CI,9.516666666,-6.483333333,92792
12102,Дабу,Dabou,Кот-д’Ивуар,Ivory Coast,CI,5.325555555,-4.376666666,138083
12124,Далоа,Daloa,Кот-д’Ивуар,Ivory Coast,CI,6.866666666,-6.45,421879
12129,Бафусам,Bafoussam,Камерун,Cameroon,CM,5.466666666,10.416666666,480000
12131,Кумба,Kumba,Камерун,Cameroon,CM,4.633333333,9.45,144268
12155,Ман,Man,Кот-д’Ивуар,Ivory Coast,CI,7.4125,-7.553611111,241969
12176,Агбовиль,Agboville,Кот-д’Ивуар,Ivory Coast,CI,5.933333333,-4.216666666,135082
12191,Сегела,Séguéla,Кот-д’Ивуар,Ivory Coast,CI,7.961111111,-6.673055555,103980
12205,Обала,Obala,Камерун,Cameroon,CM,4.16667,11.53333,45321
12207,Нгаундере,Ngaoundéré,Камерун,Cameroon,CM,7.321388888,13.583888888,189800
12216,Ганьоа,Gagnoa,Кот-д’Ивуар,Ivory Coast,CI,6.13333,-5.93333,277044
12220,Даукро,Daoukro,Кот-д’Ивуар,Ivory Coast,CI,7.0591,-3.9631,101136
12230,Сангмелима,Sangmélima,Камерун,Cameroon,CM,2.93,11.98,80036
12236,Бафиа,Bafia,Камерун,Cameroon,CM,4.7425,11.224722222,69270
12250,Базель,Basel,Швейцария,Switzerland,CH,47.560555555,7.590555555,173552
12262,Копьяпо,Montevideo,Чили,Chile,CL,-27.3665,-70.3323,150804
12275,Буэа,Buea,Камерун,Cameroon,CM,4.166666666,9.233333333,131325
12287,Адзопе,Adzopé,Кот-д’Ивуар,Ivory Coast,CI,6.103516666,-3.864813888,156488
12288,Вальенар,Vallenar,Чили,Chile,CL,-28.5751,-70.7616,45298
12304,Катиола,Katiola,Кот-д’Ивуар,Ivory Coast,CI,8.13333333,-5.1,90641
12328,Баменда,Bamenda,Камерун,Cameroon,CM,5.961388888,10.151666666,348766
12334,Беллинцона,Bellinzona,Швейцария,Switzerland,CH,46.195555,9.023809,43785
12355,Берн,Bern,Швейцария,Switzerland,CH,46.94798,7.44743,134506
12368,Фумбан,Foumban,Камерун,Cameroon,CM,5.716666666,10.916666666,130287
12387,Диво,Divo,Кот-д’Ивуар,Ivory Coast,CI,5.837222222,-5.357222222,294559
12411,Куссери,Kousséri,Камерун,Cameroon,CM,12.083333333,15.033333333,101246
12413,Моколо,Mokolo,Камерун,Cameroon,CM,10.74027778,13.80277778,40168
12457,Одиенне,Odienné,Кот-д’Ивуар,Ivory Coast,CI,9.5,-7.566666666,54669
12461,Джанг,Dschang,Камерун,Cameroon,CM,5.45,10.05,76524
12470,Криби,Kribi,Камерун,Cameroon,CM,2.95,9.916666666,60000
12506,Бондуку,Bondoukou,Кот-д’Ивуар,Ivory Coast,CI,8.04,-2.8,141568
12508,Сантьяго,Santiago,Чили,Chile,CL,-33.4375,-70.65,6257516
12512,Буаке,Bouaké,Кот-д’Ивуар,Ivory Coast,CI,7.68333,-5.03306,740000
12514,"Тико (город, Камерун)",Tiko,Камерун,Cameroon,CM,4.07861,9.36806,78885
12517,Овалье,Ovalle,Чили,Chile,CL,-30.6031,-71.203,124401
12518,Дуэкуэ,Duékoué,Кот-д’Ивуар,Ivory Coast,CI,6.741944444,-7.349166666,220953
12525,Аньяма,Anyama,Кот-д’Ивуар,Ivory Coast,CI,5.494444444,-4.051666666,389592
12533,Тумоди,Toumodi,Кот-д’Ивуар,Ivory Coast,CI,6.5557,-5.017,88580
12543,Яунде,Yaoundé,Камерун,Cameroon,CM,3.86667,11.51667,2440462
12574,Лампа,Lampa,Чили,Chile,CL,-33.283333333,-70.9,102034
12586,Гран-Басам,Grand-Bassam,Кот-д’Ивуар,Ivory Coast,CI,5.2,-3.733333333,124567
12588,Абоисо,Aboisso,Кот-д’Ивуар,Ivory Coast,CI,5.466666666,-3.2,100903
12607,Гаруа,Garoua,Камерун,Cameroon,CM,9.3,13.4,1750000
12635,Нконгсамба,Nkongsamba,Камерун,Cameroon,CM,4.95,9.916666666,135405
12639,Абенгуру,Abengourou,Кот-д’Ивуар,Ivory Coast,CI,6.7297222,-3.4963889,164424
12684,Дуала,Douala,Камерун,Cameroon,CM,4.05,9.7,2768436
12701,Бого,Bogo,Камерун,Cameroon,CM,10.733611111,14.609166666,95230
12703,Бонуа,Bonoua,Кот-д’Ивуар,Ivory Coast,CI,5.266666666,-3.6,118388
12727,Бинжервиль,Bingerville,Кот-д’Ивуар,Ivory Coast,CI,5.35,-3.9,204656
12763,Уме,Oumé,Кот-д’Ивуар,Ivory Coast,CI,6.383333333,-5.416666666,127153
12764,Абобо,Abobo,Кот-д’Ивуар,Ivory Coast,CI,5.418888888,-4.020555555,1340083
12784,Маруа,Maroua,Камерун,Cameroon,CM,10.590946,14.315925,201371
12786,Эболова,Ebolowa,Камерун,Cameroon,CM,2.916666666,11.15,76885
12812,Кумбо,Kumbo,Камерун,Cameroon,CM,6.2,10.66,125124
12839,Лимбе,Limbe,Камерун,Cameroon,CM,4.016666666,9.216666666,84223
12843,Эдеа,Edéa,Камерун,Cameroon,CM,3.8,10.133333333,73128
12855,Мбальмайо,Mbalmayo,Камерун,Cameroon,CM,3.51667,11.5,82384
12864,Димбокро,Dimbokro,Кот-д’Ивуар,Ivory Coast,CI,6.646666666,-4.705,70198
12873,Туба,Touba,Кот-д’Ивуар,Ivory Coast,CI,8.283333333,-7.683333333,55013
14251,Чучжоу,Chuzhou,Китай,People's Republic of China,CN,32.32194,118.29778,3987054
14360,Лоуди,Loudi,Китай,People's Republic of China,CN,27.73444,111.99444,3826996
14426,Лайбинь,Laibin,Китай,People's Republic of China,CN,23.733333333,109.233333333,2074611
14482,Линьфэнь,Linfen,Китай,People's Republic of China,CN,36.08889,111.51889,3976481
14493,Лайян,Laiyang,Китай,People's Republic of China,CN,36.975833333,120.713611111,794986
14661,Лоян,Luoyang,Китай,People's Republic of China,CN,34.65867,112.42447,7056699
14718,Ляньцзян,Lianjiang,Китай,People's Republic of China,CN,21.64673,110.28172,1363470
14759,Линьхай,Linhai,Китай,People's Republic of China,CN,28.85535,121.1447,1114146
14855,Мингуан,Mingguang,Китай,People's Republic of China,CN,32.78017,117.96378,485627
14891,Лэшань,Leshan,Китай,People's Republic of China,CN,29.5854,103.75755,3160168
14930,Дае,Daye,Китай,People's Republic of China,CN,30.10034,114.96988,871214
14990,Линъюань,Lingyuan,Китай,People's Republic of China,CN,41.24067,119.39572,540832
14995,Ляоюань,Liaoyuan,Китай,People's Republic of China,CN,42.89757,125.13805,996903
15277,Тумэнь,Tumen,Китай,People's Republic of China,CN,42.96268,129.84132,85248
15292,Дацин,Daqing,Китай,People's Republic of China,CN,46.59791,125.00798,2781562
15355,Мэйхэкоу,Meihekou,Китай,People's Republic of China,CN,42.5279,125.678,509336
15998,Памплона,Pamplona,Колумбия,Colombia,CO,7.376111111,-72.648333333,50025
16005,Майкао,Maicao,Колумбия,Colombia,CO,11.377777777,-72.241388888,123757
16060,Лебриха (Колумбия),Lebrija,Колумбия,Colombia,CO,7.113055555,-73.218888888,42895
16166,Лимон,Limón,Коста-Рика,Costa Rica,CR,9.99074,-83.03596,71514
16285,Маламбо (Колумбия),Malambo,Колумбия,Colombia,CO,10.860277777,-74.778888888,99058
16296,Пунтаренас,Puntarenas,Коста-Рика,Costa Rica,CR,9.977302777,-84.834641666,41528
16635,Мария-ла-Баха,María La Baja,Колумбия,Colombia,CO,9.981111111,-75.298611111,48079
16736,Сан-Хосе,San José,Коста-Рика,Costa Rica,CR,9.932511111,-84.079580555,342188
17022,Морон,Morón,Куба,Cuba,CU,22.110833333,-78.627777777,59371
17053,Злин,Zlín,Чехия,Czech Republic,CZ,49.233055555,17.666944444,74255
17079,Санкти-Спиритус,Sancti Spíritus,Куба,Cuba,CU,21.933888888,-79.443888888,138504
17081,Пинар-дель-Рио,Pinar del Río,Куба,Cuba,CU,22.412222222,-83.671944444,188614
17131,Матансас,Matanzas,Куба,Cuba,CU,23.049444,-81.573611,151624
17148,Карденас,Cárdenas,Куба,Cuba,CU,23.042777777,-81.203611111,86700
17224,Сьего-де-Авила,Ciego de Ávila,Куба,Cuba,CU,21.848055555,-78.763055555,143449
17233,Артемиса,Artemisa,Куба,Cuba,CU,22.813611111,-82.763333333,59130
17239,Оломоуц,Olomouc,Чехия,Czech Republic,CZ,49.593888888,17.250833333,102293
17245,Млада-Болеслав,Mladá Boleslav,Чехия,Czech Republic,CZ,50.4125,14.906388888,46428
17255,Гуантанамо,Guantánamo,Куба,Cuba,CU,20.138333,-75.206111,228436
17304,Ларнака,Larnaca,Кипр,Cyprus,CY,34.916666666,33.633333333,72000
17332,Гуинес,Güines,Куба,Cuba,CU,22.8475,-82.023611111,66892
17333,Сантьяго-де-Куба,Santiago de Cuba,Куба,Cuba,CU,20.021666666,-75.829444444,444851
17356,Гавана,Havana,Куба,Cuba,CU,23.136666666,-82.358888888,2492618
17371,Нуэва-Херона,Nueva Gerona,Куба,Cuba,CU,21.884722222,-82.801111111,45577
17377,Никосия,Nicosia,Кипр,Cyprus,CY,35.1725,33.365,330000
17398,Минделу,Mindelo,Кабо-Верде,Cape Verde,CV,16.891352777,-24.987983333,70468
17414,Простеёв,Prostějov,Чехия,Czech Republic,CZ,49.472222222,17.110555555,43563
17459,Флорида,Florida,Куба,Cuba,CU,21.529444444,-78.222777777,71676
17492,Хатибонико,Jatibonico,Куба,Cuba,CU,21.946388888,-79.1675,42959
17499,Пршеров,Přerov,Чехия,Czech Republic,CZ,49.455555555,17.451111111,41661
17560,Баямо,Bayamo,Куба,Cuba,CU,20.381666666,-76.642777777,235107
17574,Острава,Ostrava,Чехия,Czech Republic,CZ,49.835555555,18.2925,284765
17586,Камагуэй,Camagüey,Куба,Cuba,CU,21.378611111,-77.918611111,321992
17591,Никеро,Niquero,Куба,Cuba,CU,20.047222222,-77.578055555,41252
17607,Мост,Most,Чехия,Czech Republic,CZ,50.503055555,13.636666666,63882
17611,Пласетас,Placetas,Куба,Cuba,CU,22.315833333,-79.655555555,71208
17626,Опава,Opava,Чехия,Czech Republic,CZ,49.938055555,17.904444444,55600
17718,Маникарагуа,Manicaragua,Куба,Cuba,CU,22.15,-79.976388888,61990
17732,Теплице,Teplice,Чехия,Czech Republic,CZ,50.633333333,13.816666666,50959
17735,Консоласьон-дель-Сур,Consolación del Sur,Куба,Cuba,CU,22.508333333,-83.517222222,87500
17759,Санта-Клара,Santa Clara,Куба,Cuba,CU,22.406666666,-79.953055555,247436
17845,Лимасол,Limassol,Кипр,Cyprus,CY,34.674997,33.044286,235056
17868,Мансанильо,Manzanillo,Куба,Cuba,CU,20.339722222,-77.108611111,150999
17875,Пардубице,Pardubice,Чехия,Czech Republic,CZ,50.03861,15.77916,92362
17904,Сьенфуэгос,Cienfuegos,Куба,Cuba,CU,22.145555555,-80.436388888,164924
17913,Фамагуста,Famagusta,Кипр,Cyprus,CY,35.116666666,33.95,40920
17918,Пльзень,Plzeň,Чехия,Czech Republic,CZ,49.741388888,13.3825,185599
17934,Ческе-Будеёвице,České Budějovice,Чехия,Czech Republic,CZ,48.974722222,14.474722222,97377
17946,Целендорф,Zehlendorf,Германия,Germany,DE,52.434,13.259,58589
17969,Винтерхуде,Winterhude,Германия,Germany,DE,53.6,10,56382
18062,Дечин,Děčín,Чехия,Czech Republic,CZ,50.773611111,14.196111111,46799
18139,Либерец,Liberec,Чехия,Czech Republic,CZ,50.76711,15.05619,107982
18147,Фридек-Мистек,Frýdek-Místek,Чехия,Czech Republic,CZ,49.688055555,18.353611111,53938
18229,Гавиржов,Havířov,Чехия,Czech Republic,CZ,49.777777777,18.422777777,69694
18348,Карвина,Karviná,Чехия,Czech Republic,CZ,49.854166666,18.542777777,49724
18426,Кладно,Kladno,Чехия,Czech Republic,CZ,50.143055555,14.105277777,69078
18450,Виллих,Willich,Германия,Germany,DE,51.263055555,6.549166666,50212
18472,Вецлар,Wetzlar,Германия,Germany,DE,50.566666666,8.5,54629
18510,Градец-Кралове,Hradec Králové,Чехия,Czech Republic,CZ,50.209166666,15.831944444,93906
18537,Вильмерсдорф,Wilmersdorf,Германия,Germany,DE,52.483333333,13.316666666,102240
18595,Карловы Вары,Karlovy Vary,Чехия,Czech Republic,CZ,50.230555555,12.8725,49353
18689,Брно,Brno,Чехия,Czech Republic,CZ,49.195277777,16.608333333,400566
18776,Хомутов,Chomutov,Чехия,Czech Republic,CZ,50.462777777,13.411111111,47023
18917,Яблонец-над-Нисоу,Jablonec nad Nisou,Чехия,Czech Republic,CZ,50.727777777,15.17,46226
19116,Штраубинг,Straubing,Германия,Germany,DE,48.877222222,12.575833333,49775
19125,Вайсензе,Weißensee,Германия,Germany,DE,52.55,13.46666667,51699
19225,Шверте,Schwerte,Германия,Germany,DE,51.445833333,7.565277777,46571
19293,Унна,Unna,Германия,Germany,DE,51.534722222,7.688888888,60223
19344,Тросдорф,Troisdorf,Германия,Germany,DE,50.816111111,7.155555555,76503
19365,Фёльклинген,Völklingen,Германия,Germany,DE,49.252980555,6.856661111,41632
19374,Веддинг,Wedding,Германия,Germany,DE,52.55,13.3425,83612
19380,Швайнфурт,Schweinfurt,Германия,Germany,DE,50.05,10.233333333,55067
19424,Штакен,Staaken,Германия,Germany,DE,52.5325,13.1414,46607
19562,Зиген,Siegen,Германия,Germany,DE,50.875555555,8.016666666,102114
19685,Шверин,Schwerin,Германия,Germany,DE,53.628888888,11.415,98733
19826,Фирзен,Viersen,Германия,Germany,DE,51.25557,6.39168,79250
19871,Штеглиц,Steglitz,Германия,Germany,DE,52.466666666,13.333333333,73463
19897,Зигбург,Siegburg,Германия,Germany,DE,50.801388888,7.204444444,42025
19919,Ульм,Ulm,Германия,Germany,DE,48.39841,9.99155,129942
19953,Реда-Виденбрюк,Rheda-Wiedenbrück,Германия,Germany,DE,51.841666666,8.3,49849
19980,Райниккендорф,Reinickendorf,Германия,Germany,DE,52.566666666,13.333333333,266408
20057,Пульхайм,Pulheim,Германия,Germany,DE,51,6.8,56284
20283,Пассау,Passau,Германия,Germany,DE,48.57318,13.4506,54401
20413,Райне,Rheine,Германия,Germany,DE,52.283333333,7.433333333,78220
20520,Пренцлауэр-Берг,Prenzlauer Berg,Германия,Germany,DE,52.534167,13.418611,156910
20584,Ратинген,Ratingen,Германия,Germany,DE,51.3,6.85,87513
20588,Падерборн,Paderborn,Германия,Germany,DE,51.716666666,8.766666666,155749
20629,Росток,Rostock,Германия,Germany,DE,54.083333333,12.133333333,210795
20719,Санкт-Августин,Sankt Augustin,Германия,Germany,DE,50.77,7.186666666,56692
20764,Рудов,Rudow,Германия,Germany,DE,52.4167,13.5,41618
20875,Розенхайм,Rosenheim,Германия,Germany,DE,47.856111111,12.128888888,65192
20929,Порц,Porz,Германия,Germany,DE,50.887777777,7.055277777,113670
20939,Мангейм,Mannheim,Германия,Germany,DE,49.487777777,8.466111111,316877
20942,Липпштадт,Lippstadt,Германия,Germany,DE,51.666666666,8.35,69047
20949,Лихтерфельде,Lichterfelde,Германия,Germany,DE,52.4428,13.295666666,81831
20957,Неттеталь,Nettetal,Германия,Germany,DE,51.316666666,6.283333333,43425
21041,Мербуш,Meerbusch,Германия,Germany,DE,51.266666666,6.666666666,57440
21050,Мариендорф,Mariendorf,Германия,Germany,DE,52.44,13.39,50956
21109,Минден,Minden,Германия,Germany,DE,52.288333333,8.916666666,83100
21181,Моабит,Moabit,Германия,Germany,DE,52.5333,13.3333,81021
21226,Лёне,Löhne,Германия,Germany,DE,52.2,8.7,40162
21231,Люденшайд,Lüdenscheid,Германия,Germany,DE,51.21977,7.6273,71463
21331,Мюнстер,Münster,Германия,Germany,DE,51.9625,7.625555555,322904
21415,Нюртинген,Nürtingen,Германия,Germany,DE,48.626666666,9.335277777,41447
21425,Марль,Marl,Германия,Germany,DE,51.666666666,7.116666666,85001
21459,Нойштадт-ам-Рюбенберге,Neustadt am Rübenberge,Германия,Germany,DE,52.5055,9.46358,46692
21493,Мемминген,Memmingen,Германия,Germany,DE,47.987777777,10.181111111,46178
21539,Лихтенраде,Lichtenrade,Германия,Germany,DE,52.4,13.4,49843
21572,Лихтенберг,Lichtenberg,Германия,Germany,DE,52.533333333,13.5,294201
21575,Магдебург,Magdeburg,Германия,Germany,DE,52.1275,11.629166,240114
21759,Мёрс,Moers,Германия,Germany,DE,51.459166666,6.619722222,105606
21915,Нойс,Neuss,Германия,Germany,DE,51.200277777,6.693888888,155163
21968,Хомбург,Homburg,Германия,Germany,DE,49.316666666,7.333333333,42498
22030,Кобленц,Koblenz,Германия,Germany,DE,50.359722222,7.597777777,115298
22124,Лемго,Lemgo,Германия,Germany,DE,52.02768,8.9043,40531
22160,Хильден,Hilden,Германия,Germany,DE,51.171388888,6.939444444,55689
22194,Изерлон,Iserlohn,Германия,Germany,DE,51.383333333,7.666666666,92404
22267,Ландау,Landau in der Pfalz,Германия,Germany,DE,49.199444444,8.123055555,48341
22349,Кёпеник,Köpenick,Германия,Germany,DE,52.445833333,13.577222222,67148
22411,Камен,Kamen,Германия,Germany,DE,51.591666666,7.665277777,43001
22458,Карлсруэ,Karlsruhe,Германия,Germany,DE,49.00937,8.40444,309964
22465,Кайзерслаутерн,Kaiserslautern,Германия,Germany,DE,49.444722222,7.768888888,101486
22466,Хюккельхофен,Hückelhoven,Германия,Germany,DE,51.060833333,6.219722222,41594
22486,Хертен,Herten,Германия,Germany,DE,51.6,7.133333333,62204
22554,Керпен,Kerpen,Германия,Germany,DE,50.871944444,6.696111111,67627
22567,Клеве,Kleve,Германия,Germany,DE,51.79,6.14,53458
22629,Карст,Kaarst,Германия,Germany,DE,51.22785,6.62733,44208
22645,Иббенбюрен,Ibbenbüren,Германия,Germany,DE,52.277777777,7.716666666,52688
22683,Ландсхут,Landshut,Германия,Germany,DE,48.539722222,12.150833333,75272
22843,Ланквиц,Lankwitz,Германия,Germany,DE,52.4333,13.35,41955
22905,Кёнигсвинтер,Königswinter,Германия,Germany,DE,50.683333333,7.183333333,41642
22924,Хюрт,Hürth,Германия,Germany,DE,50.8775,6.876111111,61252
23008,Гезундбруннен,Gesundbrunnen,Германия,Germany,DE,52.548611,13.390278,90748
23085,Хайнсберг,Heinsberg,Германия,Germany,DE,51.063055555,6.096388888,43620
23113,Хеннеф,Hennef,Германия,Germany,DE,50.783333333,7.283333333,48190
23119,Гельзенкирхен,Gelsenkirchen,Германия,Germany,DE,51.516666666,7.1,265885
23158,Фридрихсфельде,Friedrichsfelde,Германия,Germany,DE,52.5058,13.5192,52502
23188,Харбург,Harburg,Германия,Germany,DE,53.45,9.966666666,174369
23226,Хаген,Hagen,Германия,Germany,DE,51.359444444,7.475,190490
23251,Гладбек,Gladbeck,Германия,Germany,DE,51.57134,6.98267,75799
23342,Франкенталь,Frankenthal,Германия,Germany,DE,49.533333333,8.35,49122
23469,Эрфурт,Erfurt,Германия,Germany,DE,50.978055555,11.028888888,215675
23516,Фрехен,Frechen,Германия,Germany,DE,50.916666666,6.816666666,53128
23549,Альтона,Altona,Германия,Germany,DE,53.55,9.9333,261213
23559,Фрайбург-им-Брайсгау,Freiburg im Breisgau,Германия,Germany,DE,47.995,7.85,237244
23560,Ойскирхен,Euskirchen,Германия,Germany,DE,50.66113,6.79387,60256
23668,Аймсбюттель,Eimsbüttel,Германия,Germany,DE,53.574444444,9.959444444,258865
23694,Гермеринг,Germering,Германия,Germany,DE,48.133333333,11.366666666,41822
23707,Франкфурт-на-Одере,Frankfurt (Oder),Германия,Germany,DE,52.342083333,14.551666666,58818
23809,Фульда,Fulda,Германия,Germany,DE,50.552777777,9.6775,70366
23824,Хеллерсдорф,Hellersdorf,Германия,Germany,DE,52.5375,13.6042,78683
23866,Гейдельберг,Heidelberg,Германия,Germany,DE,49.412222222,8.71,162960
23925,Хаттинген,Hattingen,Германия,Germany,DE,51.399166666,7.185833333,54620
24078,Бергхайм,Bergheim,Германия,Germany,DE,50.954061111,6.641238888,62172
24126,Драйайх,Dreieich,Германия,Germany,DE,50.018888888,8.696111111,42389
24131,Дюссельдорф,Düsseldorf,Германия,Germany,DE,51.231144444,6.772380555,631217
24144,Дрезден,Dresden,Германия,Germany,DE,51.0833,13.7666,566222
24147,Боркен,Borken,Германия,Germany,DE,51.843888888,6.858333333,43589
24190,Букстехуде,Buxtehude,Германия,Germany,DE,53.476944444,9.701111111,41256
24223,Дормаген,Dormagen,Германия,Germany,DE,51.0964,6.84,65170
24225,Брюль,Brühl,Германия,Germany,DE,50.833333333,6.9,45515
24370,Дюльмен,Dülmen,Германия,Germany,DE,51.830833333,7.278333333,47937
24384,Битигхайм-Биссинген,Bietigheim-Bissingen,Германия,Germany,DE,48.966666666,9.133333333,43808
24521,Бремерхафен,Bremerhaven,Германия,Germany,DE,53.55,8.583333333,114677
24528,Буххольц-ин-дер-Нордхайде,Buchholz in der Nordheide,Германия,Germany,DE,53.32852,9.86208,41290
24529,Борнхайм,Bornheim,Германия,Germany,DE,50.759166666,7.005,49074
24533,Дорстен,Dorsten,Германия,Germany,DE,51.66,6.964166666,76842
24563,Бергиш-Гладбах,Bergisch Gladbach,Германия,Germany,DE,50.991666666,7.136666666,112660
24577,Динслакен,Dinslaken,Германия,Germany,DE,51.566666666,6.733333333,67949
24643,Детмольд,Detmold,Германия,Germany,DE,51.937777777,8.883333333,74835
24693,Бохольт,Bocholt,Германия,Germany,DE,51.833333333,6.616666666,72409
24741,Бриц,Britz,Германия,Germany,DE,52.45,13.433333333,41613
24818,Бранденбург-ан-дер-Хафель,Brandenburg an der Havel,Германия,Germany,DE,52.414138888,12.554083333,73921
24857,Бюнде,Bünde,Германия,Germany,DE,52.2,8.6,45891
24928,Дортмунд,Dortmund,Германия,Germany,DE,51.513888888,7.465277777,595471
25029,Ашаффенбург,Aschaffenburg,Германия,Germany,DE,49.97575,9.1478,72918
25035,Роскилле,Roskilde,Дания,Denmark,DK,55.641666666,12.080833333,50046
25037,Виттенберг,Lutherstadt Wittenberg,Германия,Germany,DE,51.8671,12.6484,45588
25072,Шпандау,Spandau,Германия,Germany,DE,52.55,13.2,245197
25137,Бад-Энхаузен,Bad Oeynhausen,Германия,Germany,DE,52.2,8.8,49566
25175,Али-Сабих,Ali Sabieh,Джибути,Djibouti,DJ,11.155833333,42.7125,71230
25194,Альт-Хоэншёнхаузен,Alt-Hohenschönhausen,Германия,Germany,DE,52.5486,13.5075,42609
25208,Оденсе,Odense,Дания,Denmark,DK,55.4,10.383333333,180863
25237,Ален,Ahlen,Германия,Germany,DE,51.763333333,7.891111111,53278
25251,Альсдорф,Alsdorf,Германия,Germany,DE,50.874361111,6.161527777,48518
25261,Копенгаген,Copenhagen,Дания,Denmark,DK,55.676111111,12.568888888,644431
25265,Раннерс,Randers,Дания,Denmark,DK,56.456944444,10.039166666,62802
25467,Силькеборг,Silkeborg,Дания,Denmark,DK,56.166666666,9.55,50866
25471,Северный Бармбек,Barmbek-Nord,Германия,Germany,DE,53.6052,10.03988,40261
25500,Митте,Bezirk Mitte von Berlin,Германия,Germany,DE,52.516666666,13.366666666,385748
25519,Виборг,Viborg,Дания,Denmark,DK,56.45,9.4,41079
25525,Ной-Хоэншёнхаузен,Neu-Hohenschönhausen,Германия,Germany,DE,52.5633,13.505,53374
25526,Арнсберг,Arnsberg,Германия,Germany,DE,51.396666666,8.064444444,74206
25552,Нествед,Næstved,Дания,Denmark,DK,55.23333333,11.76666667,44996
25579,Коллинг,Kolding,Дания,Denmark,DK,55.490833333,9.472222222,58757
25619,Ахаус,Ahaus,Германия,Germany,DE,52.09197,6.97387,40580
25638,Хёрсхольм,Hørsholm,Дания,Denmark,DK,55.878611111,12.499166666,47489
25658,Хорсенс,Horsens,Дания,Denmark,DK,55.861944444,9.851944444,59449
25661,Вайле,Vejle,Дания,Denmark,DK,55.708333333,9.533333333,61310
25694,Бад-Зальцуфлен,Bad Salzuflen,Германия,Germany,DE,52.083333333,8.746666666,54585
25706,Баден-Баден,Baden-Baden,Германия,Germany,DE,48.761944444,8.240833333,57420
25870,Родгау,Rodgau,Германия,Germany,DE,50.025625,8.884097222,46683
25891,Рёдовре,Rødovre,Дания,Denmark,DK,55.6811,12.4558,40652
25932,Тиарет,Tiaret,Алжир,Algeria,DZ,35.366666666,1.316666666,178915
25938,Бени-Суэйф,Beni Suef,Египет,Egypt,EG,29.066666666,31.083333333,193048
25939,Хельсингёр,Helsingør,Дания,Denmark,DK,56.03606,12.6136,47364
25942,Ибарра,Ibarra,Эквадор,Ecuador,EC,0.362778,-78.13,157941
25944,Аль-Харга,el-Kharga Town,Египет,Egypt,EG,25.450561111,30.54525,60584
25954,Идку,Idku,Египет,Egypt,EG,31.305833333,30.295555555,105875
25956,Дикирнис,Dikirnis,Египет,Egypt,EG,31.083333333,31.6,101082
25957,Аннаба,Annaba,Алжир,Algeria,DZ,36.9,7.766666666,257359
25966,Эш-Шухада,Shuhada,Египет,Egypt,EG,31.08965,30.749,76071
25970,Шарм-эш-Шейх,Sharm el-Sheikh,Египет,Egypt,EG,27.851944444,34.305,73000
25971,Гуаякиль,Guayaquil,Эквадор,Ecuador,EC,-2.19,-79.8875,2650288
25976,Асуан,Aswan,Египет,Egypt,EG,24.088919444,32.899730555,351332
25978,Сангольки,Sangolquí,Эквадор,Ecuador,EC,-0.334444,-78.4475,96647
25981,Батна,Batna,Алжир,Algeria,DZ,35.55,6.166666666,290645
25982,Санто-Доминго,Santo Domingo,Доминиканская Республика,Dominican Republic,DO,18.476388888,-69.893333333,1128678
25990,Медеа,Médéa,Алжир,Algeria,DZ,36.2675,2.75,138355
25991,Латакунга,Latacunga,Эквадор,Ecuador,EC,-0.933333333,-78.616666666,77267
25998,Гирга,Girga,Египет,Egypt,EG,26.338333333,31.891666666,102597
26005,Кеведо,Quevedo,Эквадор,Ecuador,EC,-1.033333333,-79.45,177792
26009,Насер,Nasser,Египет,Egypt,EG,29.1475,31.130555555,88379
26012,Рас-Гариб,Ras Gharib,Египет,Egypt,EG,28.359722222,33.0775,100000
26017,Бурдж-эль-Киффан,Bordj El Kiffan,Алжир,Algeria,DZ,36.75,3.183333,123246
26019,Шарлоттенлунд,Charlottenlund,Дания,Denmark,DK,55.751111111,12.571944444,40000
26024,Сугёр,Sougueur,Алжир,Algeria,DZ,35.1834896,1.4958572,71036
26026,Эс-Сафф,El Saff,Египет,Egypt,EG,29.57722222,31.29055556,61531
26035,Дейрут,Dairut,Египет,Egypt,EG,27.566666666,30.816666666,102570
26044,Орхус,Aarhus,Дания,Denmark,DK,56.156388888,10.209722222,290598
26047,Эсбьерг,Esbjerg,Дания,Denmark,DK,55.470833333,8.451388888,115459
26055,Бу-Исмаил,Bou Ismaïl,Алжир,Algeria,DZ,36.65,2.7,40984
26064,Бенха,Benha,Египет,Egypt,EG,30.462777777,31.179722222,157701
26070,Айн-Дефла,Aïn Deflaa,Алжир,Algeria,DZ,36.258333333,1.958333333,55259
26080,Абу-эль-Матамир,Abu El Matamir,Египет,Egypt,EG,30.910277777,30.174444444,69338
26085,Таманрассет,Tamanrasset,Алжир,Algeria,DZ,22.785,5.522777777,92635
26092,Думьят,Damietta,Египет,Egypt,EG,31.416666666,31.821388888,206664
26093,Гельма,Guelma,Алжир,Algeria,DZ,36.461944444,7.425833333,120004
26108,Барика,Barika,Алжир,Algeria,DZ,35.388888888,5.365833333,98141
26109,Асмэра,Asmara,Эритрея,Eritrea,ER,15.333333333,38.916666666,963000
26121,Эль-Хамуль,Al Hamool,Египет,Egypt,EG,31.311388888,31.147777777,58430
26122,Тизи-Узу,Tizi Ouzou,Алжир,Algeria,DZ,36.716944444,4.049722222,135088
26131,Санта-Елена,Santa Elena,Эквадор,Ecuador,EC,-2.2267,-80.8583,54565
26139,Мерса-Матрух,Mersa Matruh,Египет,Egypt,EG,31.333333333,27.233333333,108774
26141,Монтекристи,Monte Cristi,Эквадор,Ecuador,EC,-1.05,-80.66666667,71066
26146,Тлемсен,Tlemcen,Алжир,Algeria,DZ,34.882777777,-1.316666666,173531
26154,Эль-Махалла-эль-Кубра,El Mahalla El Kubra,Египет,Egypt,EG,30.966666666,31.166666666,592573
26155,Эсна,Esna,Египет,Egypt,EG,25.293333,32.556389,68656
26163,Шеттиа,Chettia,Алжир,Algeria,DZ,36.176389,1.247778,60170
26164,Тахта,Tahta,Египет,Egypt,EG,26.768333333,31.500555555,134314
26170,Лагуат,Laghouat,Алжир,Algeria,DZ,33.8,2.865,134372
26173,Санто-Доминго,Santo Domingo,Эквадор,Ecuador,EC,-0.254166666,-79.171944444,334826
26180,Баллеруп,Ballerup,Дания,Denmark,DK,55.73165,12.36328,40000
26183,Даманхур,Damanhur,Египет,Egypt,EG,31.05,30.466666666,244043
26184,Фаршут,Farshut,Египет,Egypt,EG,26.055,32.163333333,71013
26187,Бирхадем,Birkhadem,Алжир,Algeria,DZ,36.716666666,3.05,71722
26201,Шибин-эль-Ком,Shibin Al Kawm,Египет,Egypt,EG,30.55,31,267945
26225,Бир-эль-Джир,Bir El Djir,Алжир,Algeria,DZ,35.736666666,-0.554166666,68032
26233,Милагро,Milagro,Эквадор,Ecuador,EC,-2.134722222,-79.587222222,159970
26238,Френда,Frenda,Алжир,Algeria,DZ,35.06666667,1.05,49376
26242,Сабанета,Sabaneta,Доминиканская Республика,Dominican Republic,DO,19.48333333,-71.35,98453
26243,Тарту,Tartu,Эстония,Estonia,EE,58.38,26.7225,97759
26246,Бабаойо,Babahoyo,Эквадор,Ecuador,EC,-1.816666666,-79.516666666,98251
26251,Сиди-Салим,Sidi Salem,Египет,Egypt,EG,31.271388888,30.786111111,44709
26257,Асьют,Asyut,Египет,Egypt,EG,27.186944444,31.171388888,389307
26260,Эш-Шелифф,Chlef,Алжир,Algeria,DZ,36.164722222,1.331666666,155134
26273,Буфарик,Boufarik,Алжир,Algeria,DZ,36.575,2.909722222,57162
26276,Оран,Oran,Алжир,Algeria,DZ,35.69906,-0.63588,852000
26289,Себеннит,Samannud,Египет,Egypt,EG,30.96222222,31.2425,57177
26298,Манфалут,Manfalut,Египет,Egypt,EG,27.312777777,30.970277777,82585
26310,Нью-Каир,New Cairo,Египет,Egypt,EG,30.03,31.47,1500000
26312,Хургада,Hurghada,Египет,Egypt,EG,27.257777777,33.811666666,214247
26314,Билкас,Belqas,Египет,Egypt,EG,31.21452,31.35798,137080
26321,Тисемсильт,Tissemsilt,Алжир,Algeria,DZ,35.607222222,1.810555555,75197
26350,Айн-Сефра,Aïn Séfra,Алжир,Algeria,DZ,32.75,-0.583333333,47415
26353,Эль-Ханка,Al Khankah,Египет,Egypt,EG,30.21805556,31.35888889,81646
26360,Фредерисия,Fredericia,Дания,Denmark,DK,55.564444444,9.759722222,41243
26362,Эль-Файюм,Faiyum,Египет,Egypt,EG,29.3,30.833333333,519047
26367,Хеншела,Khenchela,Алжир,Algeria,DZ,35.416666666,7.133333333,108580
26370,Эс-Сения,Es Senia,Алжир,Algeria,DZ,35.647777777,-0.623888888,96928
26371,Рашид,Rosetta,Египет,Egypt,EG,31.401388888,30.419444444,125778
26375,Идфу,Edfu,Египет,Egypt,EG,24.978055555,32.878888888,133772
26396,Гардая,Ghardaia,Алжир,Algeria,DZ,32.483333333,3.666666666,120000
26397,Риобамба,Riobamba,Эквадор,Ecuador,EC,-1.673055555,-78.648333333,177213
26399,Абнуб,Abnub,Египет,Egypt,EG,27.26666667,31.15,108858
26400,Эль-Гиза,Giza,Египет,Egypt,EG,29.987,31.2118,5598402
26405,Пасахе,Pasaje,Эквадор,Ecuador,EC,-3.3269,-79.8049,60147
26411,Сиг,Sig,Алжир,Algeria,DZ,35.52832,-0.19369,61373
26413,Бешар,Béchar,Алжир,Algeria,DZ,31.633333333,-2.2,165627
26415,Эль-Манзала,Manzala,Египет,Egypt,EG,31.158055555,31.936944444,127394
26418,Эль-Багур,El Bagour,Египет,Egypt,EG,30.433282,31.056862,62961
26421,Тиндуф,Tindouf,Алжир,Algeria,DZ,27.675277777,-8.128611111,45610
26428,Миньят-эн-Наср,Minyat an Naşr,Египет,Egypt,EG,31.123888888,31.645833333,82429
26437,Пярну,Pärnu,Эстония,Estonia,EE,58.384444444,24.498888888,41520
26442,Эль-Мансура,Mansoura,Египет,Egypt,EG,31.03637,31.38069,621953
26446,Хош-Иса,Hosh Essa,Египет,Egypt,EG,30.9058,30.2916,82999
26452,Зифта,Zefta,Египет,Egypt,EG,30.711944444,31.239444444,93740
26453,Хернинг,Herning,Дания,Denmark,DK,56.136111111,8.976666666,44557
26455,Меруана,Merouana,Алжир,Algeria,DZ,35.628611111,5.911666666,47646
26456,Бордж-Бу-Арреридж,Bordj Bou Arréridj,Алжир,Algeria,DZ,36.066666666,4.766666666,168346
26457,Эль-Кусия,El Quseyya,Египет,Egypt,EG,27.440277777,30.818333333,69388
26464,Мачала,Machala,Эквадор,Ecuador,EC,-3.266666666,-79.966666666,288072
26466,Ибшавай,Ibsheway,Египет,Egypt,EG,29.359722222,30.682222222,86186
26467,Амбато,Ambato,Эквадор,Ecuador,EC,-1.242222222,-78.628888888,177316
26482,Айн-Усера,Aïn Oussera,Алжир,Algeria,DZ,35.448888888,2.904444444,101239
26501,Мсила,M'Sila,Алжир,Algeria,DZ,35.705833333,4.541944444,132975
26508,Басьюн,Basyoun,Египет,Egypt,EG,30.936388888,30.811111111,75084
26511,Мостаганем,Mostaganem,Алжир,Algeria,DZ,35.933333333,0.090277777,145696
26517,Фредериксберг,Frederiksberg,Дания,Denmark,DK,55.67938,12.53463,105037
26519,Ширбин,Sherbin,Египет,Egypt,EG,31.19222222,31.52388889,54785
26525,Наг-Хаммади,Nag Hammadi,Египет,Egypt,EG,26.05,32.25,45038
26533,Ашмун,Ashmoun,Египет,Egypt,EG,30.3,30.983333333,84871
26535,Беджая,Béjaïa,Алжир,Algeria,DZ,36.751111111,5.064166666,176139
26536,Фува (Египет),Fuwwah,Египет,Egypt,EG,31.202777777,30.550277777,93392
26545,Константина,Constantine,Алжир,Algeria,DZ,36.365,6.614722222,465138
26549,Айн-Бейда,Aïn Beïda,Алжир,Algeria,DZ,35.796388888,7.392777777,116064
26550,Тух,Toukh,Египет,Egypt,EG,30.35487,31.20105,52593
26553,Эль-Эулма,El Eulma,Алжир,Algeria,DZ,36.152777777,5.69,155038
26559,Хемис-эль-Хешна,Khemis El-Khechna,Алжир,Algeria,DZ,36.65,3.33055556,76474
26561,Пунта-Кана,Punta Cana,Доминиканская Республика,Dominican Republic,DO,18.558611111,-68.369444444,138919
26562,Блида,Blida,Алжир,Algeria,DZ,36.472222222,2.833333333,163586
26567,Матарийя,Matarieh,Египет,Egypt,EG,31.18287,32.03108,162045
26574,Хасси-Мессауд,Hassi Messaoud,Алжир,Algeria,DZ,31.7,6.066666666,45147
26576,Хелуан,Helwan,Египет,Egypt,EG,29.8493,31.3327,619293
26578,Кувейсина,Quweisna,Египет,Egypt,EG,30.564183,31.157219,65690
26581,Бумердес,Boumerdès,Алжир,Algeria,DZ,36.759444444,3.472777777,41685
26585,Эль-Баяд,El Bayadh,Алжир,Algeria,DZ,33.683055555,1.019166666,85577
26597,Кито,Quito,Эквадор,Ecuador,EC,-0.22,-78.5125,1763275
26598,Саида,Saida,Алжир,Algeria,DZ,34.830277777,0.151666666,128413
26600,Регая,Réghaïa,Алжир,Algeria,DZ,36.7631,3.3426,54962
26601,Сиди-Бель-Аббес,Sidi Bel Abbès,Алжир,Algeria,DZ,35.2,-0.633333333,212935
26607,Эз-Заказик,Zagazig,Египет,Egypt,EG,30.566666666,31.5,383703
26611,Ахмим,Akhmim,Египет,Egypt,EG,26.564166666,31.746111111,101509
26621,Ольборг,Aalborg,Дания,Denmark,DK,57.05,9.916666666,113417
26625,Адрар,Adrar,Алжир,Algeria,DZ,27.874166666,-0.293888888,68276
26627,Ком-Хамада,Kom Hamadah,Египет,Egypt,EG,30.760833333,30.697222222,55652
26629,Тальха,Talkha,Египет,Egypt,EG,31.059166666,31.376666666,112851
26630,Тумебамба,Tumebamba,Эквадор,Ecuador,EC,-2.906388888,-78.997527777,636996
26631,Эль-Канатир-эль-Хейрия,Qanatir el Qahiriya,Египет,Egypt,EG,30.193333333,31.136944444,83568
26633,Кус,Qus,Египет,Egypt,EG,25.916666666,32.75,84386
26637,Релизан,Relizane,Алжир,Algeria,DZ,35.737222222,0.555833333,130094
26639,Джельфа,Djelfa,Алжир,Algeria,DZ,34.666666666,3.25,265833
26640,Аджа,Aga,Египет,Egypt,EG,30.94162,31.29039,47013
26642,Тала,Tala,Египет,Egypt,EG,30.6801,30.9438,72536
26645,Нуэва-Лоха,Nueva Loja,Эквадор,Ecuador,EC,0.086,-76.89528,55627
26647,Суэц,Suez,Египет,Egypt,EG,29.966666666,32.533333333,516959
26649,Нарва,Narva,Эстония,Estonia,EE,59.379166666,28.200555555,53360
26666,Ум-эль-Буахи,Oum El Bouaghi. Ain fakroun,Алжир,Algeria,DZ,35.870555555,7.115,67201
26675,Дисук,Desouk,Египет,Egypt,EG,31.1325,30.647777777,143404
26693,Эль-Гамалия,Al Jamālīyah,Египет,Egypt,EG,31.180833333,31.865277777,99641
26697,Абу-Тиг,Abutig,Египет,Egypt,EG,27.044166666,31.318888888,70969
26700,Уаргла,Ouargla,Алжир,Algeria,DZ,31.95,5.316666666,133024
26717,Тулькан,Tulcán,Эквадор,Ecuador,EC,0.811666666,-77.718611111,56719
26723,Буира,Bouïra,Алжир,Algeria,DZ,36.378333333,3.8925,68545
26733,Дишна,Dishna,Египет,Egypt,EG,26.1225,32.47111111,64744
26734,Лоха,Loja,Эквадор,Ecuador,EC,-3.990555555,-79.205,203496
26738,Руиссат,Rouissat,Алжир,Algeria,DZ,31.936576,5.3354073,80784
26739,Эль-Хруб,El Khroub,Алжир,Algeria,DZ,36.263333333,6.693611111,90122
26742,Манта,Manta,Эквадор,Ecuador,EC,-0.950022222,-80.7162,258697
26748,Мессад,Messaâd,Алжир,Algeria,DZ,34.154166666,3.496944444,102453
26756,Минуф,Menouf,Египет,Egypt,EG,30.466666666,30.933333333,117240
26764,Кафр-аз-Зият,Kafr az Zayyāt,Египет,Egypt,EG,30.819722222,30.824166666,83348
26765,Порт-Саид,Port Said,Египет,Egypt,EG,31.2625,32.306111111,524433
26769,Сетиф,Sétif,Алжир,Algeria,DZ,36.19,5.41,288461
26771,Асэб,Assab,Эритрея,Eritrea,ER,13.007777777,42.741111111,74405
26773,Кальюб,Qalyub,Египет,Egypt,EG,30.199722222,31.205277777,156363
26790,Мила,Mila,Алжир,Algeria,DZ,36.448055555,6.262222222,63251
26794,Афлу,Aflou,Алжир,Algeria,DZ,34.112777777,2.102222222,93585
26796,Улад-Муса,Ouled Moussa,Алжир,Algeria,DZ,36.68305556,3.36805556,45770
26797,Эль-Бальяна,El-Balyana,Египет,Egypt,EG,26.232927777,31.999261111,46997
26802,Будуау,Boudouaou,Алжир,Algeria,DZ,36.7313191,3.4047805,56398
26805,Эль-Ариш,Arish,Египет,Egypt,EG,31.133333333,33.8,164830
26811,Отавало,Otavalo,Эквадор,Ecuador,EC,0.23457,-78.26248,41718
26812,Тамия,Tamiya,Египет,Egypt,EG,29.478,30.9574,73070
26813,Скикда,Skikda,Алжир,Algeria,DZ,36.866666666,6.9,163318
26819,Луксор,Luxor,Египет,Egypt,EG,25.696666666,32.644444444,202232
26821,Сук-Ахрас,Souk Ahras,Алжир,Algeria,DZ,36.286388888,7.951111111,155259
26823,Эль-Фашн,Al Fashn,Египет,Egypt,EG,28.822222222,30.898333333,61372
26825,Кафр-эд-Даввар,Kafr el-Dawwar,Египет,Egypt,EG,31.133888888,30.129722222,104709
26830,Эт-Тель-эль-Кебир,Tall al Kabir,Египет,Egypt,EG,30.545555555,31.778055555,46962
26837,Маскара,Mascara,Алжир,Algeria,DZ,35.4,0.133333333,108587
26840,Таллин,Tallinn,Эстония,Estonia,EE,59.437222222,24.745,457572
26850,Дуран,Durán,Эквадор,Ecuador,EC,-2.173333333,-79.831111111,295211
26852,Пуэрто-Франсиско-де-Орельяна,Coca,Эквадор,Ecuador,EC,-0.4625,-76.984166666,51281
26855,Эсмеральдас,Esmeraldas,Эквадор,Ecuador,EC,0.95,-79.666666666,155487
26866,Кэрэн,Keren,Эритрея,Eritrea,ER,15.783333333,38.45,74800
26870,Колеа,Koléa,Алжир,Algeria,DZ,36.640555555,2.765,61643
26879,Кена,Qena,Египет,Egypt,EG,26.166666666,32.716666666,201191
26882,Портовьехо,Portoviejo,Эквадор,Ecuador,EC,-1.05458,-80.45445,244129
26884,Танта,Tanta,Египет,Egypt,EG,30.783333333,31,429503
26887,Ком-Омбо,Kom Ombo,Египет,Egypt,EG,24.466666666,32.95,71596
26892,Исмаилия,Ismailia,Египет,Egypt,EG,30.583333333,32.266666666,429465
26895,Итса,Itsa,Египет,Egypt,EG,29.2375,30.78944444,74357
26903,Алжир,Algiers,Алжир,Algeria,DZ,36.776388888,3.058611111,3415811
26908,Туггурт,Touggourt,Алжир,Algeria,DZ,33.1,6.066666666,143270
26911,Эд-Дилингат,Ad Dilinjat,Египет,Egypt,EG,30.82777778,30.53638889,68901
26919,Джиджель,Jijel,Алжир,Algeria,DZ,36.820555555,5.766666666,131513
26979,Толедо,Toledo,Испания,Spain,ES,39.866666666,-4.033333333,86070
26990,Пуэртольяно,Puertollano,Испания,Spain,ES,38.6852167,-4.111178,45127
27184,Манакор,Manacor,Испания,Spain,ES,39.57,3.208888888,46395
27255,Торренте,Torrent,Испания,Spain,ES,39.4365348,-0.4679001,87295
27407,Линарес,Linares,Испания,Spain,ES,38.1,-3.633333,55096
27455,Талавера-де-ла-Рейна,Talavera de la Reina,Испания,Spain,ES,39.966666666,-4.833333333,84137
27458,Пальма,Palma,Испания,Spain,ES,39.56951,2.64745,423350
27484,Марчена,Marchena,Испания,Spain,ES,37.329722222,-5.416388888,356763
27530,Вильярреаль,Vila-real,Испания,Spain,ES,39.937777777,-0.101388888,50472
27709,Лорка,Lorca,Испания,Spain,ES,37.683333333,-1.7,98447
27734,Лусена,Lucena,Испания,Spain,ES,37.408888888,-4.485277777,42813
27816,Лас-Пальмас-де-Гран-Канария,Las Palmas de Gran Canaria,Испания,Spain,ES,28.127222222,-15.431388888,378027
27978,Гранада,Granada,Испания,Spain,ES,37.178055555,-3.600833333,232717
27980,Адехе,Adeje,Испания,Spain,ES,28.12633,-16.74332,50167
28069,Уэльва,Huelva,Испания,Spain,ES,37.2582,-6.92932,142532
28072,Аликанте,Alicante,Испания,Spain,ES,38.35323,-0.48134,349282
28251,Дос-Эрманас,Dos Hermanas,Испания,Spain,ES,37.283611111,-5.922222222,138981
28273,Алькой,Alcoy,Испания,Spain,ES,38.698333333,-0.473611111,59493
28321,Сьюдад-Реаль,Ciudad Real,Испания,Spain,ES,38.983333333,-3.916666666,75303
28331,Алькантарилья,Alcantarilla,Испания,Spain,ES,37.972222222,-1.209444444,43049
28523,Арона,Arona,Испания,Spain,ES,28.0996248,-16.6809103,85249
28635,Бурхасот,Burjassot,Испания,Spain,ES,39.5090599,-0.4108581,40634
28761,Гандия,Gandia,Испания,Spain,ES,38.966666666,-0.182222222,78108
28771,Арресифе Лансарот,Lanzarote Arrecife,Испания,Spain,ES,28.9625,-13.550555555,64826
28919,Альхаурин-де-ла-Торре,Alhaurín de la Torre,Испания,Spain,ES,36.661838,-4.5649934,43674
28961,Торрелавега,Torrelavega,Испания,Spain,ES,43.353055555,-4.045833333,51361
29009,Вик,Vic,Испания,Spain,ES,41.930379,2.254575,48364
29117,Викальваро,Vicálvaro,Испания,Spain,ES,40.4042,-3.60806,83804
29120,Тарраса,Terrassa,Испания,Spain,ES,41.561111111,2.008055555,225277
29217,Тетуан,Tetuán,Испания,Spain,ES,40.460556,-3.7,160002
29583,Ривас-Васиамадрид,Rivas-Vaciamadrid,Испания,Spain,ES,40.339444444,-3.518055555,100275
29665,Виго,Vigo,Испания,Spain,ES,42.235833333,-8.726666666,293652
29706,Виладеканс,Viladecans,Испания,Spain,ES,41.315833333,2.019444444,66677
29734,Вальядолид,Valladolid,Испания,Spain,ES,41.651980555,-4.728561111,297459
29737,Сарагоса,Zaragoza,Испания,Spain,ES,41.65,-0.883333333,682513
29896,Виланова-и-ла-Желтру,Vilanova i la Geltrú,Испания,Spain,ES,41.224277,1.725905,68854
29918,Вильафранка-дель-Пенедес,Vilafranca del Penedès,Испания,Spain,ES,41.344722222,1.699444444,40714
29988,Сабадель,Sabadell,Испания,Spain,ES,41.548333333,2.1075,218300
30111,Сант-Бой-де-Льобрегат,Sant Boi de Llobregat,Испания,Spain,ES,41.345833333,2.041666666,83919
30192,Сантьяго-де-Компостела,Santiago de Compostela,Испания,Spain,ES,42.883333333,-8.533333333,98687
30215,Сантандер,Santander,Испания,Spain,ES,43.466666666,-3.8,172726
30228,Овьедо,Oviedo,Испания,Spain,ES,43.3625,-5.850277777,217584
30309,Паленсия,Palencia,Испания,Spain,ES,42.016666666,-4.533333333,76331
30331,Баракальдо,Barakaldo,Испания,Spain,ES,43.297222222,-2.991666666,101229
30347,Пинто,Pinto,Испания,Spain,ES,40.241111111,-3.699444444,55208
30465,Сант-Кугат-дель-Вальес,Sant Cugat del Vallès,Испания,Spain,ES,41.473538,2.085244,97530
30474,Реус,Reus,Испания,Spain,ES,41.15487,1.10871,108479
30599,Сан-Фелиу-де-Льобрегат,Sant Feliu de Llobregat,Испания,Spain,ES,41.383333333,2.043888888,46056
30614,Саламанка,Salamanca,Испания,Spain,ES,40.965,-5.664166666,143954
30689,Санта-Колома-де-Граменет,Santa Coloma de Gramenet,Испания,Spain,ES,41.453888888,2.211111111,119862
30695,Руби,Rubí,Испания,Spain,ES,41.493333333,2.0325,80044
30744,Серданьола-дель-Вальес,Cerdanyola del Vallès,Испания,Spain,ES,41.491944444,2.138888888,57879
31003,Жирона,Girona,Испания,Spain,ES,41.983333333,2.816666666,107032
31009,Луго,Lugo,Испания,Spain,ES,43.011666666,-7.557222222,99482
31146,Льейда,Lleida,Испания,Spain,ES,41.616666666,0.633333333,144739
31266,Мольет-дель-Вальес,Mollet del Vallès,Испания,Spain,ES,41.535572,2.210705,51824
31271,Мораталас,Moratalaz,Испания,Spain,ES,40.409869444,-3.644436111,92814
31341,Леон,León,Испания,Spain,ES,42.598888888,-5.566944444,122243
31362,Гава,Gavà,Испания,Spain,ES,41.307222222,2.003888888,47593
31376,Оспиталет,L'Hospitalet de Llobregat,Испания,Spain,ES,41.358888888,2.099166666,274455
31381,Игуалада,Igualada,Испания,Spain,ES,41.581388888,1.620833333,41164
31382,Грасия,Gràcia,Испания,Spain,ES,41.406667,2.158056,123276
31414,Гечо,Getxo,Испания,Spain,ES,43.344166666,-3.006388888,76104
31666,Ирун,Irun,Испания,Spain,ES,43.337806,-1.788806,62920
31767,Льорет-де-Мар,Lloret de Mar,Испания,Spain,ES,41.7,2.833333,41559
31773,Логроньо,Logroño,Испания,Spain,ES,42.47,-2.445555555,150583
31785,Гвадалахара,Guadalajara,Испания,Spain,ES,40.633333333,-3.166666666,89010
31863,Манреса,Manresa,Испания,Spain,ES,41.726388888,1.829166666,78877
31874,Гранольерс,Granollers,Испания,Spain,ES,41.608333,2.288889,63092
31908,Уэска,Huesca,Испания,Spain,ES,42.1401,-0.408897222,54704
31930,Кольменар-Вьехо,Colmenar Viejo,Испания,Spain,ES,40.6587901,-3.7663207,55198
31964,Фигерес,Figueres,Испания,Spain,ES,42.266666666,2.95,47879
32204,Эсплугес-де-Льобрегат,Esplugues de Llobregat,Испания,Spain,ES,41.376666666,2.085833333,46921
32350,Кастельдефельс,Castelldefels,Испания,Spain,ES,41.28,1.976666666,68427
32469,Куэнка,Cuenca,Испания,Spain,ES,40.071666666,-2.135,53512
32482,Корнелья-де-Льобрегат,Cornellà de Llobregat,Испания,Spain,ES,41.355,2.071111111,90303
32504,Сьюдад-Линеаль,Ciudad Lineal,Испания,Spain,ES,40.45,-3.65,220345
32721,Бургос,Burgos,Испания,Spain,ES,42.340833333,-3.699722222,174451
32757,Чамартин,Chamartín,Испания,Spain,ES,40.453333333,-3.6775,144796
32996,Монклоа-Аравака,Moncloa-Aravaca,Испания,Spain,ES,40.435151,-3.718765,121757
33007,Бланес,Blanes,Испания,Spain,ES,41.674,2.792111111,41653
33175,Харэр,Harar,Эфиопия,Ethiopia,ET,9.31387,42.11815,129000
33232,Джимма,Jimma,Эфиопия,Ethiopia,ET,7.666666666,36.833333333,177900
33258,Сантс-Монтжуик,Sants-Montjuïc,Испания,Spain,ES,41.3372,2.1406,187026
33375,Фуэнкарраль — Эль-Пардо,Fuencarral-El Pardo,Испания,Spain,ES,40.478611111,-3.709722222,248443
33423,Бадалона,Badalona,Испания,Spain,ES,41.433333333,2.233333333,225957
33429,Авила,Ávila,Испания,Spain,ES,40.66864,-4.66064,57741
33430,Ноу Баррис,Nou Barris,Испания,Spain,ES,41.441388888,2.171944444,179590
33459,Джиджига,Jijiga,Эфиопия,Ethiopia,ET,9.35,42.8,159300
33462,Усера,Usera,Испания,Spain,ES,40.381336111,-3.706855555,142746
33472,Эшампле,Eixample,Испания,Spain,ES,41.38896,2.16179,269349
33493,Басаури,Basauri,Испания,Spain,ES,43.236666666,-2.89,40413
33511,Ында-Сылласе,Shire,Эфиопия,Ethiopia,ET,14.1,38.2833,100100
33561,Назрет,Adama,Эфиопия,Ethiopia,ET,8.55,39.266666666,324000
33565,Джинка,Jinka,Эфиопия,Ethiopia,ET,5.78333333,36.56666667,54400
33571,Аргансуэла,Arganzuela,Испания,Spain,ES,40.402733,-3.695403,153304
33580,Старый город Барселона,Ciutat Vella,Испания,Spain,ES,41.380833333,2.173055555,109672
33586,Хосаына,Hosaena,Эфиопия,Ethiopia,ET,7.55,37.85,69995
33598,Комболча,Kombolcha,Эфиопия,Ethiopia,ET,11.085555555,39.738055555,85367
33634,Моджо,Mojo,Эфиопия,Ethiopia,ET,8.65,39.0833,61300
33643,Сарриа-Сант-Жерваси,Sarrià-Sant Gervasi,Испания,Spain,ES,41.39861111,2.13111111,149201
33645,Мэкэле,Mek'ele,Эфиопия,Ethiopia,ET,13.496944444,39.476944444,323700
33660,Ретиро,Retiro,Испания,Spain,ES,40.408072,-3.676729,117918
33689,Мизан-Тэфэри,Mizan Teferi,Эфиопия,Ethiopia,ET,7,35.58333333,62000
33719,Шашэмэнне,Shashamane,Эфиопия,Ethiopia,ET,7.2,38.583333333,208400
33737,Чамбери,Chamberí,Испания,Spain,ES,40.432791666,-3.697186111,138204
33755,Сентро,Centro,Испания,Spain,ES,40.415347,-3.707371,139687
33789,Карабанчель,Carabanchel,Испания,Spain,ES,40.383669444,-3.727988888,262339
33869,Верэта,Wereta,Эфиопия,Ethiopia,ET,11.9167,37.7,47800
33872,Звай,Batu,Эфиопия,Ethiopia,ET,7.933333333,38.716666666,43660
33990,Вильжюиф,Villejuif,Франция,France,FR,48.793888888,2.361111111,58142
33998,Дэбрэ-Маркос,Debre Marqos,Эфиопия,Ethiopia,ET,10.333333333,37.716666666,140700
34000,Адди-Грат,Adigrat,Эфиопия,Ethiopia,ET,14.266666666,39.45,76400
34024,Арба-Мынч,Arba Minch,Эфиопия,Ethiopia,ET,6.03333,37.55,201000
34030,Ваттрело,Wattrelos,Франция,France,FR,50.701111111,3.213333333,40881
34036,Гамбела,Gambela,Эфиопия,Ethiopia,ET,8.25,34.5833,97600
34098,Сейняйоки,Seinäjoki,Финляндия,Finland,FI,62.790277777,22.840277777,66271
34113,Версаль,Versailles,Франция,France,FR,48.805,2.135,83918
34176,Венсен,Vincennes,Франция,France,FR,48.847777777,2.439166666,48368
34183,Лохья,Lohja,Финляндия,Finland,FI,60.37318,23.93528,45645
34184,Дэбрэ-Бырхан,Debre Berhan,Эфиопия,Ethiopia,ET,9.678611111,39.533333333,146900
34220,Дилла,Dila,Эфиопия,Ethiopia,ET,6.4125,38.31166667,59150
34230,Хювинкяа,Hyvinkää,Финляндия,Finland,FI,60.63195,24.8606,46925
34248,Бахр-Дар,Bahir Dar,Эфиопия,Ethiopia,ET,11.585,37.39,243300
34252,Сува,Suva,Фиджи,Fiji,FJ,-18.133333333,178.433333333,88271
34282,Дэссе,Dessie,Эфиопия,Ethiopia,ET,11.133333333,39.633333333,187900
34314,Хельсинки,Helsinki,Финляндия,Finland,FI,60.17556,24.93417,675747
34321,Ауаса,Hawaasa,Эфиопия,Ethiopia,ET,7.05,38.466666666,300100
34334,Савла,Sawla,Эфиопия,Ethiopia,ET,6.3,36.883333333,61000
34444,Амбо,Ambo,Эфиопия,Ethiopia,ET,8.983333333,37.85,48171
34454,Аксум,Axum,Эфиопия,Ethiopia,ET,14.12109,38.72337,66800
34465,Вийёрбан,Villeurbanne,Франция,France,FR,45.766111111,4.879444444,162207
34539,Фынотэ-Сэлам,Finote Selam,Эфиопия,Ethiopia,ET,10.7,37.2667,58400
34553,Нурмиярви,Nurmijärvi,Финляндия,Finland,FI,60.45312,24.76288,44833
34577,Дэбрэ-Зэйт,Bishoftu,Эфиопия,Ethiopia,ET,8.75,38.983333333,99928
34666,Буле-Хора,Hagere Mariam,Эфиопия,Ethiopia,ET,5.583333333,38.25,57700
34711,Киркконумми,Kirkkonummi,Финляндия,Finland,FI,60.14698,24.45885,41154
34722,Лаутока,Lautoka,Фиджи,Fiji,FJ,-17.61686,177.45049,52220
34724,Гондэр,Gondar,Эфиопия,Ethiopia,ET,12.6,37.466666666,323900
34730,Эспоо,Espoo,Финляндия,Finland,FI,60.25,24.66667,314821
34883,Нанди,Nadi,Фиджи,Fiji,FJ,-17.8,177.416666666,71048
34898,Витри-сюр-Сен,Vitry-sur-Seine,Франция,France,FR,48.7875,2.392777777,95282
34933,Тулуза,Toulouse,Франция,France,FR,43.604444444,1.443888888,511684
34974,Ван,Vannes,Франция,France,FR,47.655,-2.761666666,54955
35058,Тарб,Tarbes,Франция,France,FR,43.232777777,0.074444444,44529
35129,Валансьен,Valenciennes,Франция,France,FR,50.358055555,3.523333333,42979
35156,Страсбург,Strasbourg,Франция,France,FR,48.573333333,7.752222222,291709
35163,Севран,Sevran,Франция,France,FR,48.941388888,2.522777777,51640
35196,Туркуэн,Tourcoing,Франция,France,FR,50.7225,3.160277777,99160
35262,Салон-де-Прованс,Salon-de-Provence,Франция,France,FR,43.640555555,5.097222222,44553
35300,Вольс-ан-Велен,Vaulx-en-Velin,Франция,France,FR,45.786944444,4.925,52448
35510,Венисьё,Vénissieux,Франция,France,FR,45.696944444,4.885833333,66701
35558,Тур,Tours,Франция,France,FR,47.392777777,0.688333333,138668
35669,Сарсель,Sarcelles,Франция,France,FR,48.997222222,2.378055555,58576
35699,Стен,Stains,Франция,France,FR,48.955277777,2.382222222,40600
35723,Тьонвиль,Thionville,Франция,France,FR,49.358055555,6.168333333,42778
35754,Сартровиль,Sartrouville,Франция,France,FR,48.945277777,2.17,51570
35756,Тулон,Toulon,Франция,France,FR,43.125,5.930555555,180834
35774,Таланс,Talence,Франция,France,FR,44.808598,-0.588308,45869
35855,Валанс,Valence,Франция,France,FR,44.9325,4.890833333,64288
35863,Сет,Sète,Франция,France,FR,43.404444444,3.696666666,45090
35872,Сюрен,Suresnes,Франция,France,FR,48.871111111,2.226944444,48932
35890,Труа,Troyes,Франция,France,FR,48.298888888,4.078055555,62443
35910,Рюэй-Мальмезон,Rueil-Malmaison,Франция,France,FR,48.877777777,2.188333333,80842
35938,Сен-Бриё,Saint-Brieuc,Франция,France,FR,48.513611111,-2.760277777,44607
36052,Сент-Этьен,Saint-Étienne,Франция,France,FR,45.433888888,4.389722222,172569
36068,Рони-су-Буа,Rosny-sous-Bois,Франция,France,FR,48.873055555,2.485277777,45947
36136,Сен-Назер,Saint-Nazaire,Франция,France,FR,47.273611111,-2.213888888,73111
36220,Рубе,Roubaix,Франция,France,FR,50.69,3.181666666,99507
36244,Сент-Уан-сюр-Сен,Saint-Ouen-sur-Seine,Франция,France,FR,48.906944444,2.333055555,53041
36340,Сен-Мор-де-Фоссе,Saint-Maur-des-Fossés,Франция,France,FR,48.8025,2.485555555,76010
36341,Сен-Кантен,Saint-Quentin,Франция,France,FR,49.847777777,3.285555555,52995
36434,Руан,Rouen,Франция,France,FR,49.443055555,1.1025,116331
36857,Сен-Эрблен,Saint-Herblain,Франция,France,FR,47.211388888,-1.651111111,50561
36963,Пюто,Puteaux,Франция,France,FR,48.884166666,2.238055555,44198
37057,Пуасси,Poissy,Франция,France,FR,48.928888888,2.044722222,40792
37108,Кемпер,Quimper,Франция,France,FR,47.995833333,-4.097777777,64530
37109,Пантен,Pantin,Франция,France,FR,48.898055555,2.407222222,60954
37145,Ним,Nîmes,Франция,France,FR,43.838333333,4.359722222,150444
37170,Ньор,Niort,Франция,France,FR,46.325,-0.462222222,60074
37190,Орлеан,Orléans,Франция,France,FR,47.902222222,1.904166666,116344
37345,Перпиньян,Perpignan,Франция,France,FR,42.6975,2.894722222,120996
37453,Пессак,Pessac,Франция,France,FR,44.805833333,-0.632222222,66874
37704,Пуатье,Poitiers,Франция,France,FR,46.581111111,0.335277777,89472
37799,Рен,Rennes,Франция,France,FR,48.114166666,-1.680833333,227830
37890,Реймс,Reims,Франция,France,FR,49.265277777,4.028611111,178478
37932,Мант-ла-Жоли,Mantes-la-Jolie,Франция,France,FR,48.990555555,1.716666666,44246
38008,Монтелимар,Montélimar,Франция,France,FR,44.558611111,4.750833333,40356
38043,Нантер,Nanterre,Франция,France,FR,48.890555555,2.203611111,98119
38211,Марсель,Marseille,Франция,France,FR,43.296666666,5.376388888,873076
38223,Нант,Nantes,Франция,France,FR,47.217222222,-1.553888888,325070
38238,Мюлуз,Mulhouse,Франция,France,FR,47.748611111,7.339166666,104924
38239,Монруж,Montrouge,Франция,France,FR,48.816388888,2.321111111,46273
38259,Масси,Massy,Франция,France,FR,48.730555555,2.276388888,50597
38318,Нанси,Nancy,Франция,France,FR,48.692777777,6.183611111,104387
38439,Монпелье,Montpellier,Франция,France,FR,43.610919444,3.877230555,307101
38441,Монтрёй,Montreuil,Франция,France,FR,48.860277777,2.443055555,110758
38452,Мелён,Melun,Франция,France,FR,48.539722222,2.659166666,43685
38463,Мо,Meaux,Франция,France,FR,48.959444444,2.887777777,56659
38517,Лион,Lyon,Франция,France,FR,45.758888888,4.841388888,520774
38553,Мезонз-Альфор,Maisons-Alfort,Франция,France,FR,48.805833333,2.437777777,57422
38625,Мартиг,Martigues,Франция,France,FR,43.405277777,5.0475,48818
38726,Мёдон,Meudon,Франция,France,FR,48.8075,2.240277777,46722
38750,Лорьян,Lorient,Франция,France,FR,47.745833333,-3.366388888,58202
38804,Нарбон,Narbonne,Франция,France,FR,43.184722222,3.003611111,56692
38857,Нёйи-сюр-Сен,Neuilly-sur-Seine,Франция,France,FR,48.887222222,2.2675,59200
38868,Ницца,Nice,Франция,France,FR,43.701944444,7.268333333,353701
38869,Мериньяк,Mérignac,Франция,France,FR,44.8425,-0.645,77136
39032,Ле-Ман,Le Mans,Франция,France,FR,48.004166666,0.196944444,145182
39063,Ла-Курнёв,La Courneuve,Франция,France,FR,48.931388888,2.395833333,47086
39149,Леваллуа-Перре,Levallois-Perret,Франция,France,FR,48.893333333,2.287777777,68412
39166,Гавр,Le Havre,Франция,France,FR,49.494166666,0.108055555,166462
39242,Ле-Канне,Le Cannet,Франция,France,FR,43.576111111,7.018611111,40198
39418,Ла-Рош-сюр-Йон,La Roche-sur-Yon,Франция,France,FR,46.669722222,-1.427777777,54699
39488,Лаваль,Laval,Франция,France,FR,48.072777777,-0.77,49474
39495,Ла-Рошель,La Rochelle,Франция,France,FR,46.159444444,-1.151388888,79961
39597,Лимож,Limoges,Франция,France,FR,45.834444444,1.261666666,129754
39630,Ла-Сейн-сюр-Мер,La Seyne-sur-Mer,Франция,France,FR,43.103055555,5.878333333,62905
39880,Ле-Блан-Мениль,Le Blanc-Mesnil,Франция,France,FR,48.938611111,2.461111111,59912
39883,Ливри-Гарган,Livry-Gargan,Франция,France,FR,48.918333333,2.535277777,46507
39916,Йер,Hyères,Франция,France,FR,43.118888888,6.128611111,55384
39993,Грас,Grasse,Франция,France,FR,43.658055555,6.925277777,48669
40028,Гренобль,Grenoble,Франция,France,FR,45.186944444,5.726388888,156389
40057,Иври-сюр-Сен,Ivry-sur-Seine,Франция,France,FR,48.813888888,2.387777777,64526
40090,Гарж-ле-Гонесс,Garges-lès-Gonesse,Франция,France,FR,48.971944444,2.4,42388
40192,Фонтене-су-Буа,Fontenay-sous-Bois,Франция,France,FR,48.851666666,2.477222222,52646
40345,Дюнкерк,Dunkirk,Франция,France,FR,51.037777777,2.376388888,86788
40423,Женвилье,Gennevilliers,Франция,France,FR,48.925555555,2.294444444,50874
40521,Гап,Gap,Франция,France,FR,44.558611111,6.077777777,40656
40529,Эпине-сюр-Сен,Épinay-sur-Seine,Франция,France,FR,48.954722222,2.308333333,53564
40572,Эврё,Évreux,Франция,France,FR,49.023333333,1.1525,48335
40605,Фрежюс,Fréjus,Франция,France,FR,43.433055555,6.735555555,58499
40640,Ганьи,Gagny,Франция,France,FR,48.881666666,2.538888888,40790
40880,Исси-ле-Мулино,Issy-les-Moulineaux,Франция,France,FR,48.823055555,2.269166666,67695
40884,Истр,Istres,Франция,France,FR,43.514166666,4.988888888,44044
40957,Шалон-сюр-Сон,Chalon-sur-Saône,Франция,France,FR,46.781111111,4.853888888,44592
41011,Шуази-ле-Руа,Choisy-le-Roi,Франция,France,FR,48.766388888,2.407777777,46122
41026,Кламар,Clamart,Франция,France,FR,48.800833333,2.261944444,56882
41064,Клермон-Ферран,Clermont-Ferrand,Франция,France,FR,45.779722222,3.086944444,147751
41095,Коломб,Colombes,Франция,France,FR,48.923611111,2.252222222,90692
41117,Курбевуа,Courbevoie,Франция,France,FR,48.897222222,2.252222222,81945
41229,Компьень,Compiègne,Франция,France,FR,49.414166666,2.822222222,40808
41245,Коломье,Colomiers,Франция,France,FR,43.612777777,1.335833333,40916
41251,Шампиньи-сюр-Марн,Champigny-sur-Marne,Франция,France,FR,48.817222222,2.515555555,77724
41309,Дижон,Dijon,Франция,France,FR,47.323055555,5.041944444,159941
41318,Кастр,Castres,Франция,France,FR,43.605833333,2.24,42700
41343,Кретей,Créteil,Франция,France,FR,48.777777777,2.453055555,92859
41371,Сержи,Cergy,Франция,France,FR,49.052222222,2.036111111,69578
41373,Клиши-ла-Гаренн,Clichy,Франция,France,FR,48.903611111,2.305555555,65102
41396,Шоле,Cholet,Франция,France,FR,47.058888888,-0.879722222,54074
41484,Шатору,Châteauroux,Франция,France,FR,46.809722222,1.690277777,43079
41506,Драгиньян,Draguignan,Франция,France,FR,43.539444444,6.466111111,40789
41520,Шель,Chelles,Франция,France,FR,48.878611111,2.588888888,54372
41534,Шарлевиль-Мезьер,Charleville-Mézières,Франция,France,FR,49.76,4.719444444,45634
41603,Кольмар,Colmar,Франция,France,FR,48.081111111,7.355,67360
41639,Корбей-Эсон,Corbeil-Essonnes,Франция,France,FR,48.610277777,2.474722222,53712
41644,Шамбери,Chambéry,Франция,France,FR,45.566388888,5.920833333,60251
41742,Шалон-ан-Шампань,Châlons-en-Champagne,Франция,France,FR,48.956666666,4.364444444,43218
41784,Дранси,Drancy,Франция,France,FR,48.923333333,2.445,71312
41929,Обервилье,Aubervilliers,Франция,France,FR,48.911111111,2.3825,89489
41944,Бурж,Bourges,Франция,France,FR,47.083611111,2.395555555,64238
41977,Баньоле,Bagnolet,Франция,France,FR,48.866944444,2.416944444,41776
41985,Кан,Caen,Франция,France,FR,49.18585,-0.35912,108398
42000,Ольне-су-Буа,Aulnay-sous-Bois,Франция,France,FR,48.936388888,2.493055555,86360
42033,Брест,Brest,Франция,France,FR,48.39,-4.486944444,140993
42051,Баньё,Bagneux,Франция,France,FR,48.797777777,2.3125,43647
42121,Байонна,Bayonne,Франция,France,FR,43.4925,-1.476388888,53312
42189,Калюр-е-Кюр,Caluire-et-Cuire,Франция,France,FR,45.794722222,4.846388888,43479
42251,Бельфор,Belfort,Франция,France,FR,47.6375,6.862777777,45646
42273,Канны,Cannes,Франция,France,FR,43.5525,7.021388888,74040
42328,Авиньон,Avignon,Франция,France,FR,43.948611111,4.808333333,91760
42357,Бобиньи,Bobigny,Франция,France,FR,48.909722222,2.438611111,55270
42389,Брив-ла-Гайард,Brive-la-Gaillarde,Франция,France,FR,45.158888888,1.533055555,46769
42429,Бастия,Bastia,Франция,France,FR,42.7,9.449444444,47459
42476,Безансон,Besançon,Франция,France,FR,47.242222222,6.021388888,120057
42481,Булонь-сюр-Мер,Boulogne-sur-Mer,Франция,France,FR,50.725555555,1.613888888,41039
42516,Блуа,Blois,Франция,France,FR,47.593055555,1.327222222,47092
42524,Бонди,Bondy,Франция,France,FR,48.902777777,2.483611111,51066
42545,Обань,Aubagne,Франция,France,FR,43.290833333,5.570833333,47724
42572,Бордо,Bordeaux,Франция,France,FR,44.837777777,-0.579444444,265328
42621,Бурк-ан-Брес,Bourg-en-Bresse,Франция,France,FR,46.204722222,5.228055555,42065
42681,Кань-сюр-Мер,Cagnes-sur-Mer,Франция,France,FR,43.663611111,7.148333333,52852
42716,Бове,Beauvais,Франция,France,FR,49.434166666,2.0875,55906
42752,Булонь-Бийанкур,Boulogne-Billancourt,Франция,France,FR,48.835277777,2.241388888,120205
42755,Каркасон,Carcassonne,Франция,France,FR,43.215833333,2.351388888,46429
42841,Брон,Bron,Франция,France,FR,45.738611111,4.913055555,42850
42875,Безье,Béziers,Франция,France,FR,43.343333333,3.216111111,80815
42915,Уотфорд,Watford,Великобритания,United Kingdom,GB,51.655277777,-0.395833333,90301
42919,Анже,Angers,Франция,France,FR,47.472777777,-0.555555555,157555
42958,Антони,Antony,Франция,France,FR,48.753333333,2.296666666,64026
42983,Англет,Anglet,Франция,France,FR,43.484166666,-1.519444444,42288
43016,Торки,Torquay,Великобритания,United Kingdom,GB,50.4625,-3.528055555,48563
43022,Вестминстер,City of Westminster,Великобритания,United Kingdom,GB,51.51291,-0.15895,211365
43065,Типтон,Tipton,Великобритания,United Kingdom,GB,52.5259,-2.0751,47000
43072,Франсвиль,Franceville,Габон,Gabon,GA,-1.633333333,13.583333333,110568
43104,Аржантёй,Argenteuil,Франция,France,FR,48.947777777,2.248888888,107135
43121,Альфорвиль,Alfortville,Франция,France,FR,48.7975,2.424166666,45569
43140,Тонтон,Taunton,Великобритания,United Kingdom,GB,51.019166666,-3.1,60479
43152,Аррас,Arras,Франция,France,FR,50.289166666,2.78,42621
43168,Тайнмут,Tynemouth,Великобритания,United Kingdom,GB,55.01788,-1.42559,68202
43253,Моанда,Moanda,Габон,Gabon,GA,-1.566666666,13.2,59154
43289,Антиб,Antibes,Франция,France,FR,43.58,7.123055555,76612
43326,Уэйкфилд,Wakefield,Великобритания,United Kingdom,GB,53.6825,-1.4975,99251
43332,Либревиль,Libreville,Габон,Gabon,GA,0.3901,9.4544,797003
43334,Вустер,Worcester,Великобритания,United Kingdom,GB,52.191111111,-2.220555555,101891
43344,Суиндон,Swindon,Великобритания,United Kingdom,GB,51.558333333,-1.781111111,222193
43359,Анси,Annecy,Франция,France,FR,45.899166666,6.129444444,131272
43381,Уолласи,Wallasey,Великобритания,United Kingdom,GB,53.423,-3.065,60284
43384,Вашингтон,Washington,Великобритания,United Kingdom,GB,54.9,-1.52,67158
43396,Амьен,Amiens,Франция,France,FR,49.891944444,2.297777777,134780
43397,Уиган,Wigan,Великобритания,United Kingdom,GB,53.544722222,-2.631666666,103608
43408,Уэст-Бриджфорд,West Bridgford,Великобритания,United Kingdom,GB,52.92,-1.13,48314
43409,Армстрон,Urmston,Великобритания,United Kingdom,GB,53.4487,-2.3747,41198
43481,Йорк,York,Великобритания,United Kingdom,GB,53.95,-1.083333333,208400
43483,Уэллинг,Welling,Великобритания,United Kingdom,GB,51.4594,0.1097,42500
43510,Алес,Alès,Франция,France,FR,44.127222222,4.080833333,45025
43516,Уокинг,Woking,Великобритания,United Kingdom,GB,51.316111111,-0.561111111,62796
43524,Уэрксоп,Worksop,Великобритания,United Kingdom,GB,53.309722222,-1.122777777,43252
43584,Порт-Жантиль,Port-Gentil,Габон,Gabon,GA,-0.716666666,8.783333333,136462
43606,Уинчестер,Winchester,Великобритания,United Kingdom,GB,51.063333333,-1.308611111,46074
43668,Уэлин-Гарден-Сити,Welwyn Garden City,Великобритания,United Kingdom,GB,51.8062,-0.1932,48380
43685,Суонси,Swansea,Великобритания,United Kingdom,GB,51.616666666,-3.95,246700
43691,Тамуэрт,Tamworth,Великобритания,United Kingdom,GB,52.633,-1.695,73924
43724,Аньер-сюр-Сен,Asnières-sur-Seine,Франция,France,FR,48.911111111,2.285555555,91457
43744,Аяччо,Ajaccio,Франция,France,FR,41.925555555,8.736388888,75343
43783,Арль,Arles,Франция,France,FR,43.676944444,4.628611111,51156
43812,Уэмбли,Wembley,Великобритания,United Kingdom,GB,51.556,-0.3042,90045
43823,Уэймут,Weymouth,Великобритания,United Kingdom,GB,50.609722222,-2.454722222,53046
43847,Ангулем,Angoulême,Франция,France,FR,45.649444444,0.159444444,41423
43861,Оем,Oyem,Габон,Gabon,GA,1.599972222,11.573583333,60685
43866,Уэст-Бромидж,West Bromwich,Великобритания,United Kingdom,GB,52.51868,-1.9945,146386
43884,Экс-ан-Прованс,Aix-en-Provence,Франция,France,FR,43.527777777,5.445555555,147933
43888,Уиднс,Widnes,Великобритания,United Kingdom,GB,53.363,-2.728,61464
43947,Сейл,Sale,Великобритания,United Kingdom,GB,53.424,-2.322,134022
43973,Саутпорт,Southport,Великобритания,United Kingdom,GB,53.646944444,-3.008055555,91703
43980,Страуд,Stroud,Великобритания,United Kingdom,GB,51.744166666,-2.215,60155
44011,Стаурбридж,Stourbridge,Великобритания,United Kingdom,GB,52.458,-2.148,63298
44042,Стокпорт,Stockport,Великобритания,United Kingdom,GB,53.408333333,-2.149444444,294773
44077,Ройал-Танбридж-Уэлс,Royal Tunbridge Wells,Великобритания,United Kingdom,GB,51.132,0.263,57772
44078,Норидж,Norwich,Великобритания,United Kingdom,GB,52.62783,1.29834,195971
44086,Солфорд,Salford,Великобритания,United Kingdom,GB,53.482777777,-2.293055555,103886
44100,Рочестер,Rochester,Великобритания,United Kingdom,GB,51.38764,0.50546,62982
44158,Ньюпорт,Newport,Великобритания,United Kingdom,GB,51.588611111,-2.997777777,159600
44160,Сент-Хеленс,St Helens,Великобритания,United Kingdom,GB,53.4541,-2.7461,183248
44209,Понтефракт,Pontefract,Великобритания,United Kingdom,GB,53.691,-1.312,44710
44221,Олдем,Oldham,Великобритания,United Kingdom,GB,53.544722222,-2.118333333,96555
44240,Реддитч,Redditch,Великобритания,United Kingdom,GB,52.306944444,-1.949166666,81919
44282,Шеффилд,Sheffield,Великобритания,United Kingdom,GB,53.38297,-1.4659,577800
44307,Мертир-Тидвил,Merthyr Tydfil,Великобритания,United Kingdom,GB,51.74794,-3.37779,58839
44309,Саутенд-он-Си,Southend-on-Sea,Великобритания,United Kingdom,GB,51.53789,0.71377,160257
44316,Стейнс-апон-Темз,Staines-upon-Thames,Великобритания,United Kingdom,GB,51.434,-0.511,51040
44365,Редхилл,Redhill,Великобритания,United Kingdom,GB,51.2393,-0.1726,51559
44385,Оксфорд,Oxford,Великобритания,United Kingdom,GB,51.751944444,-1.257777777,147500
44404,Солсбери,Salisbury,Великобритания,United Kingdom,GB,51.074,-1.7936,41552
44444,Нанитон,Nuneaton,Великобритания,United Kingdom,GB,52.523,-1.4683,86552
44508,Ромфорд,Romford,Великобритания,United Kingdom,GB,51.5768,0.1801,95000
44512,Рединг,Reading,Великобритания,United Kingdom,GB,51.454166666,-0.973055555,162666
44515,Сканторп,Scunthorpe,Великобритания,United Kingdom,GB,53.5809,-0.6502,79977
44517,Саут-Шилдс,South Shields,Великобритания,United Kingdom,GB,54.995,-1.43,75337
44527,Скарборо,Scarborough,Великобритания,United Kingdom,GB,54.2825,-0.4,61749
44539,Сток-он-Трент,Stoke-on-Trent,Великобритания,United Kingdom,GB,53,-2.183333333,249008
44540,Сент-Олбанс,St Albans,Великобритания,United Kingdom,GB,51.755,-0.336,82146
44555,Нортгемптон,Northampton,Великобритания,United Kingdom,GB,52.233333333,-0.9,245899
44586,Пейнтон,Paignton,Великобритания,United Kingdom,GB,50.435277777,-3.5625,64410
44613,Мидлсбро,Middlesbrough,Великобритания,United Kingdom,GB,54.573888888,-1.233333333,140545
44625,Рагби,Rugby,Великобритания,United Kingdom,GB,52.37,-1.26,70627
44657,Рочдейл,Rochdale,Великобритания,United Kingdom,GB,53.6136,-2.161,110194
44666,Перли,Purley,Великобритания,United Kingdom,GB,51.3373,-0.1141,72000
44669,Стретфорд,Stretford,Великобритания,United Kingdom,GB,53.446666666,-2.308611111,46910
44677,Сметик,Smethwick,Великобритания,United Kingdom,GB,52.493055555,-1.968611111,48180
44733,Ньюарк-он-Трент,Newark-on-Trent,Великобритания,United Kingdom,GB,53.0765,-0.81,43363
44744,Ранкорн,Runcorn,Великобритания,United Kingdom,GB,53.341944444,-2.733611111,61789
44747,Ньюкасл-андер-Лайм,Newcastle-under-Lyme,Великобритания,United Kingdom,GB,53.0109,-2.2278,75082
44761,Сандерленд,Sunderland,Великобритания,United Kingdom,GB,54.9,-1.380277777,277417
44774,Стивенидж,Stevenage,Великобритания,United Kingdom,GB,51.901666666,-0.201944444,89663
44789,Ньюбёрн,Newburn,Великобритания,United Kingdom,GB,54.983,-1.743,41347
44806,Ньютаунабби,Newtownabbey,Великобритания,United Kingdom,GB,54.673333333,-5.913611111,62056
44857,Слау,Slough,Великобритания,United Kingdom,GB,51.509722222,-0.593055555,119070
44875,Ноттингем,Nottingham,Великобритания,United Kingdom,GB,52.955,-1.149166666,289301
